{
"type": "FeatureCollection",
"name": "Cafes_wgs84",
"crs": { "type": "name", "properties": { "name": "urn:ogc:def:crs:OGC:1.3:CRS84" } },
"features": [
{ "type": "Feature", "properties": { "osm_id": 368261001, "name": "", "amenity": "cafe", "cuisine": "coffee_shop", "addr_street": "", "addr_housenumber": "", "addr_postcode": "", "opening_hours": "", "phone": "", "website": "" }, "geometry": { "type": "Point", "coordinates": [ 103.8862866, 1.3893648 ] } },
{ "type": "Feature", "properties": { "osm_id": 393149179, "name": "", "amenity": "cafe", "cuisine": "coffee_shop", "addr_street": "", "addr_housenumber": "", "addr_postcode": "", "opening_hours": "", "phone": "", "website": "" }, "geometry": { "type": "Point", "coordinates": [ 103.9482377, 1.3314661 ] } },
{ "type": "Feature", "properties": { "osm_id": 512084967, "name": "Tiong Bahru Bakery", "amenity": "cafe", "cuisine": "", "addr_street": "The Centrepoint", "addr_housenumber": "#01-01–06;#01-09–11;#01-102/103", "addr_postcode": "", "opening_hours": "Mo-Su 07:30-22:00", "phone": "+65 68774896", "website": "https://www.tiongbahrubakery.com/" }, "geometry": { "type": "Point", "coordinates": [ 103.8400063, 1.3013209 ] } },
{ "type": "Feature", "properties": { "osm_id": 518302672, "name": "PS cafe", "amenity": "cafe", "cuisine": "", "addr_street": "Harding Road", "addr_housenumber": "28B", "addr_postcode": "249549", "opening_hours": "", "phone": "", "website": "" }, "geometry": { "type": "Point", "coordinates": [ 103.8110709, 1.3047042 ] } },
{ "type": "Feature", "properties": { "osm_id": 518302785, "name": "PS Cafe", "amenity": "cafe", "cuisine": "international", "addr_street": "Orchard Road", "addr_housenumber": "390", "addr_postcode": "238871", "opening_hours": "", "phone": "", "website": "http://www.pscafe.sg/" }, "geometry": { "type": "Point", "coordinates": [ 103.8298378, 1.3068516 ] } },
{ "type": "Feature", "properties": { "osm_id": 610732291, "name": "Mixue", "amenity": "cafe", "cuisine": "ice_cream;bubble_tea", "addr_street": "Victoria Street", "addr_housenumber": "241", "addr_postcode": "188030", "opening_hours": "", "phone": "", "website": "" }, "geometry": { "type": "Point", "coordinates": [ 103.8552471, 1.3003144 ] } },
{ "type": "Feature", "properties": { "osm_id": 617987730, "name": "Grill & Pasta", "amenity": "cafe", "cuisine": "Western/Italian", "addr_street": "Jalan Leban", "addr_housenumber": "Off upper Thomson", "addr_postcode": "", "opening_hours": "", "phone": "+6590109214", "website": "" }, "geometry": { "type": "Point", "coordinates": [ 103.8290509, 1.3722892 ] } },
{ "type": "Feature", "properties": { "osm_id": 687602963, "name": "The Tea Party", "amenity": "cafe", "cuisine": "", "addr_street": "", "addr_housenumber": "", "addr_postcode": "", "opening_hours": "", "phone": "", "website": "" }, "geometry": { "type": "Point", "coordinates": [ 103.7752657, 1.2994266 ] } },
{ "type": "Feature", "properties": { "osm_id": 694130820, "name": "Coffee Express", "amenity": "cafe", "cuisine": "", "addr_street": "", "addr_housenumber": "", "addr_postcode": "", "opening_hours": "", "phone": "", "website": "" }, "geometry": { "type": "Point", "coordinates": [ 103.9572551, 1.3695931 ] } },
{ "type": "Feature", "properties": { "osm_id": 694833627, "name": "KPT", "amenity": "cafe", "cuisine": "", "addr_street": "", "addr_housenumber": "", "addr_postcode": "", "opening_hours": "", "phone": "", "website": "" }, "geometry": { "type": "Point", "coordinates": [ 103.9581207, 1.3703592 ] } },
{ "type": "Feature", "properties": { "osm_id": 775915340, "name": "Starbucks", "amenity": "cafe", "cuisine": "coffee_shop", "addr_street": "Sun Plaza, 30 Sembawang Drive,", "addr_housenumber": "#01-22", "addr_postcode": "757713", "opening_hours": "Mo-Su 07:00-22:00", "phone": "+65 6910 1307", "website": "https://www.starbucks.com/" }, "geometry": { "type": "Point", "coordinates": [ 103.8194535, 1.4479064 ] } },
{ "type": "Feature", "properties": { "osm_id": 783666675, "name": "Bistro Lab", "amenity": "cafe", "cuisine": "", "addr_street": "", "addr_housenumber": "", "addr_postcode": "", "opening_hours": "", "phone": "", "website": "" }, "geometry": { "type": "Point", "coordinates": [ 103.9318335, 1.3438352 ] } },
{ "type": "Feature", "properties": { "osm_id": 1029132195, "name": "Starbucks", "amenity": "cafe", "cuisine": "coffee_shop", "addr_street": "Jurong West Central 3 #03-52/52A Jurong Point", "addr_housenumber": "63", "addr_postcode": "648331", "opening_hours": "", "phone": "", "website": "" }, "geometry": { "type": "Point", "coordinates": [ 103.705622, 1.3388938 ] } },
{ "type": "Feature", "properties": { "osm_id": 1080233739, "name": "Coffee Shops", "amenity": "cafe", "cuisine": "", "addr_street": "", "addr_housenumber": "", "addr_postcode": "", "opening_hours": "", "phone": "", "website": "" }, "geometry": { "type": "Point", "coordinates": [ 103.8003488, 1.3066948 ] } },
{ "type": "Feature", "properties": { "osm_id": 1107464790, "name": "Woons Kopi by Killiney", "amenity": "cafe", "cuisine": "", "addr_street": "", "addr_housenumber": "", "addr_postcode": "", "opening_hours": "", "phone": "", "website": "" }, "geometry": { "type": "Point", "coordinates": [ 103.9889449, 1.3137991 ] } },
{ "type": "Feature", "properties": { "osm_id": 1107465018, "name": "Lepak Corner", "amenity": "cafe", "cuisine": "", "addr_street": "", "addr_housenumber": "", "addr_postcode": "", "opening_hours": "", "phone": "", "website": "" }, "geometry": { "type": "Point", "coordinates": [ 103.9888956, 1.3144687 ] } },
{ "type": "Feature", "properties": { "osm_id": 1125787979, "name": "Pines Cafe", "amenity": "cafe", "cuisine": "", "addr_street": "", "addr_housenumber": "", "addr_postcode": "", "opening_hours": "", "phone": "", "website": "" }, "geometry": { "type": "Point", "coordinates": [ 103.8427357, 1.3344354 ] } },
{ "type": "Feature", "properties": { "osm_id": 1129421961, "name": "", "amenity": "cafe", "cuisine": "", "addr_street": "", "addr_housenumber": "", "addr_postcode": "", "opening_hours": "", "phone": "", "website": "" }, "geometry": { "type": "Point", "coordinates": [ 103.7047998, 1.3405679 ] } },
{ "type": "Feature", "properties": { "osm_id": 1244322599, "name": "Café@Moberly, Student Hub@Moberly", "amenity": "cafe", "cuisine": "", "addr_street": "", "addr_housenumber": "", "addr_postcode": "", "opening_hours": "", "phone": "", "website": "" }, "geometry": { "type": "Point", "coordinates": [ 103.7784074, 1.3080582 ] } },
{ "type": "Feature", "properties": { "osm_id": 1275482845, "name": "Starbucks", "amenity": "cafe", "cuisine": "coffee_shop", "addr_street": "Scotts Road", "addr_housenumber": "9", "addr_postcode": "228210", "opening_hours": "24/7", "phone": "+65 6736 4315", "website": "https://www.starbucks.com.sg/" }, "geometry": { "type": "Point", "coordinates": [ 103.8324156, 1.3064544 ] } },
{ "type": "Feature", "properties": { "osm_id": 1278204291, "name": "Coffee Club", "amenity": "cafe", "cuisine": "", "addr_street": "", "addr_housenumber": "", "addr_postcode": "", "opening_hours": "", "phone": "", "website": "" }, "geometry": { "type": "Point", "coordinates": [ 103.8312388, 1.3050836 ] } },
{ "type": "Feature", "properties": { "osm_id": 1313941260, "name": "Coastal Rhythm", "amenity": "cafe", "cuisine": "", "addr_street": "East Coast Parkway", "addr_housenumber": "1206A", "addr_postcode": "449891", "opening_hours": "Mo-Fr 10:00-22:00; Sa-Su 09:00-22:00", "phone": "+65 66363705", "website": "http://www.facebook.com/CoastalRhythm" }, "geometry": { "type": "Point", "coordinates": [ 103.9317231, 1.3056033 ] } },
{ "type": "Feature", "properties": { "osm_id": 1316097225, "name": "The Coffee Bean & Tea Leaf", "amenity": "cafe", "cuisine": "coffee_shop", "addr_street": "", "addr_housenumber": "", "addr_postcode": "", "opening_hours": "", "phone": "", "website": "" }, "geometry": { "type": "Point", "coordinates": [ 103.8177296, 1.2512356 ] } },
{ "type": "Feature", "properties": { "osm_id": 1386255330, "name": "Starbucks", "amenity": "cafe", "cuisine": "coffee_shop", "addr_street": "College Avenue West", "addr_housenumber": "8", "addr_postcode": "138608", "opening_hours": "open; SH 08:00-22:00", "phone": "+65 6659 6081", "website": "" }, "geometry": { "type": "Point", "coordinates": [ 103.7728511, 1.3055489 ] } },
{ "type": "Feature", "properties": { "osm_id": 1396677545, "name": "The Royals Bistro", "amenity": "cafe", "cuisine": "", "addr_street": "", "addr_housenumber": "", "addr_postcode": "", "opening_hours": "", "phone": "", "website": "" }, "geometry": { "type": "Point", "coordinates": [ 103.7738694, 1.3037933 ] } },
{ "type": "Feature", "properties": { "osm_id": 1616332356, "name": "Starbucks", "amenity": "cafe", "cuisine": "coffee_shop", "addr_street": "Wilkie Road", "addr_housenumber": "8", "addr_postcode": "228095", "opening_hours": "", "phone": "", "website": "" }, "geometry": { "type": "Point", "coordinates": [ 103.849799, 1.3019206 ] } },
{ "type": "Feature", "properties": { "osm_id": 1703872735, "name": "The Coffee Bean & Tea Leaf", "amenity": "cafe", "cuisine": "coffee_shop", "addr_street": "Seletar Rd, Greenwich V", "addr_housenumber": "1", "addr_postcode": "807011", "opening_hours": "Mo-Su 08:00-23:00", "phone": "", "website": "" }, "geometry": { "type": "Point", "coordinates": [ 103.8692488, 1.3875539 ] } },
{ "type": "Feature", "properties": { "osm_id": 1703872738, "name": "Toast Box", "amenity": "cafe", "cuisine": "", "addr_street": "1 Seletar Rd, Greenwich V", "addr_housenumber": "#01-06", "addr_postcode": "807011", "opening_hours": "Su-Th 07:30-22:00; Fr-Sa 07:30-22:30; PH 07:30-22:30", "phone": "", "website": "" }, "geometry": { "type": "Point", "coordinates": [ 103.8691857, 1.3875441 ] } },
{ "type": "Feature", "properties": { "osm_id": 1711105942, "name": "The Coffee Bean & Tea Leaf", "amenity": "cafe", "cuisine": "coffee_shop", "addr_street": "1 Fifth Avenue, Guthrie House", "addr_housenumber": "#01-04", "addr_postcode": "268802", "opening_hours": "", "phone": "", "website": "https://www.coffeebean.com.sg/" }, "geometry": { "type": "Point", "coordinates": [ 103.7956809, 1.3306493 ] } },
{ "type": "Feature", "properties": { "osm_id": 1737553054, "name": "Cheers", "amenity": "cafe", "cuisine": "", "addr_street": "", "addr_housenumber": "", "addr_postcode": "", "opening_hours": "", "phone": "", "website": "" }, "geometry": { "type": "Point", "coordinates": [ 103.7771748, 1.3096411 ] } },
{ "type": "Feature", "properties": { "osm_id": 1737553058, "name": "Starbucks", "amenity": "cafe", "cuisine": "coffee_shop", "addr_street": "Dover Road, Food Court 5,", "addr_housenumber": "500", "addr_postcode": "139651", "opening_hours": "", "phone": "", "website": "" }, "geometry": { "type": "Point", "coordinates": [ 103.7769601, 1.3095202 ] } },
{ "type": "Feature", "properties": { "osm_id": 1833740154, "name": "Starbucks", "amenity": "cafe", "cuisine": "coffee_shop", "addr_street": "", "addr_housenumber": "", "addr_postcode": "", "opening_hours": "", "phone": "", "website": "" }, "geometry": { "type": "Point", "coordinates": [ 103.8653995, 1.2826991 ] } },
{ "type": "Feature", "properties": { "osm_id": 1848143229, "name": "Cafe Hotshot", "amenity": "cafe", "cuisine": "", "addr_street": "", "addr_housenumber": "", "addr_postcode": "", "opening_hours": "", "phone": "", "website": "" }, "geometry": { "type": "Point", "coordinates": [ 103.7799025, 1.3083429 ] } },
{ "type": "Feature", "properties": { "osm_id": 1950182530, "name": "Nanyang Old Coffee", "amenity": "cafe", "cuisine": "", "addr_street": "South Bridge Road", "addr_housenumber": "268", "addr_postcode": "058817", "opening_hours": "Mo-Su 07:00-21:45", "phone": "+65 6100 3450", "website": "https://nanyangoldcoffee.com/" }, "geometry": { "type": "Point", "coordinates": [ 103.8448952, 1.2818086 ] } },
{ "type": "Feature", "properties": { "osm_id": 1953018864, "name": "Starbucks", "amenity": "cafe", "cuisine": "coffee_shop", "addr_street": "", "addr_housenumber": "", "addr_postcode": "", "opening_hours": "", "phone": "", "website": "" }, "geometry": { "type": "Point", "coordinates": [ 103.828628, 1.306993 ] } },
{ "type": "Feature", "properties": { "osm_id": 2031222780, "name": "Jungle Cafe", "amenity": "cafe", "cuisine": "", "addr_street": "", "addr_housenumber": "", "addr_postcode": "", "opening_hours": "", "phone": "", "website": "" }, "geometry": { "type": "Point", "coordinates": [ 103.6283576, 1.427527 ] } },
{ "type": "Feature", "properties": { "osm_id": 2031222794, "name": "The Cafe", "amenity": "cafe", "cuisine": "", "addr_street": "", "addr_housenumber": "", "addr_postcode": "", "opening_hours": "", "phone": "", "website": "" }, "geometry": { "type": "Point", "coordinates": [ 103.6310676, 1.4271632 ] } },
{ "type": "Feature", "properties": { "osm_id": 2047770047, "name": "s(he)brews café", "amenity": "cafe", "cuisine": "coffee_shop", "addr_street": "Commonwealth Avenue", "addr_housenumber": "365", "addr_postcode": "149732", "opening_hours": "", "phone": "", "website": "" }, "geometry": { "type": "Point", "coordinates": [ 103.801392, 1.2992209 ] } },
{ "type": "Feature", "properties": { "osm_id": 2099138257, "name": "Toby's Estate", "amenity": "cafe", "cuisine": "coffee_shop", "addr_street": "Rodyk Street", "addr_housenumber": "8", "addr_postcode": "238216", "opening_hours": "Mo-Th,Su 07:30-18:00; Fr,Sa 07:30-19:00", "phone": "+6566367629", "website": "https://www.tobysestate.com.sg/" }, "geometry": { "type": "Point", "coordinates": [ 103.8374006, 1.2899337 ] } },
{ "type": "Feature", "properties": { "osm_id": 2099138262, "name": "Kith Cafe", "amenity": "cafe", "cuisine": "coffee_shop", "addr_street": "", "addr_housenumber": "", "addr_postcode": "", "opening_hours": "", "phone": "", "website": "" }, "geometry": { "type": "Point", "coordinates": [ 103.8380311, 1.2897265 ] } },
{ "type": "Feature", "properties": { "osm_id": 2218001335, "name": "The Coffee Bean & Tea Leaf", "amenity": "cafe", "cuisine": "coffee_shop", "addr_street": "Orchard Road, #01-45/46, Forum The Shopping Mall", "addr_housenumber": "583", "addr_postcode": "238884", "opening_hours": "", "phone": "", "website": "https://www.coffeebean.com.sg/" }, "geometry": { "type": "Point", "coordinates": [ 103.828494, 1.3064522 ] } },
{ "type": "Feature", "properties": { "osm_id": 2380324920, "name": "Earlybird", "amenity": "cafe", "cuisine": "coffee_shop", "addr_street": "Jalan Pinang", "addr_housenumber": "17", "addr_postcode": "199149", "opening_hours": "", "phone": "+65 6298 2420", "website": "" }, "geometry": { "type": "Point", "coordinates": [ 103.8581886, 1.3028912 ] } },
{ "type": "Feature", "properties": { "osm_id": 2386331202, "name": "White Rabbit Cafe", "amenity": "cafe", "cuisine": "russian", "addr_street": "", "addr_housenumber": "", "addr_postcode": "", "opening_hours": "", "phone": "", "website": "" }, "geometry": { "type": "Point", "coordinates": [ 103.8451839, 1.2906084 ] } },
{ "type": "Feature", "properties": { "osm_id": 2402528910, "name": "Cafe O", "amenity": "cafe", "cuisine": "", "addr_street": "Victoria Street", "addr_housenumber": "", "addr_postcode": "", "opening_hours": "", "phone": "", "website": "" }, "geometry": { "type": "Point", "coordinates": [ 103.8548425, 1.2998702 ] } },
{ "type": "Feature", "properties": { "osm_id": 2421003733, "name": "Starbucks", "amenity": "cafe", "cuisine": "coffee_shop", "addr_street": "South Woodlands Drive", "addr_housenumber": "900", "addr_postcode": "730900", "opening_hours": "", "phone": "", "website": "" }, "geometry": { "type": "Point", "coordinates": [ 103.7868133, 1.4352133 ] } },
{ "type": "Feature", "properties": { "osm_id": 2421033267, "name": "Starbucks", "amenity": "cafe", "cuisine": "coffee_shop", "addr_street": "", "addr_housenumber": "", "addr_postcode": "", "opening_hours": "", "phone": "", "website": "" }, "geometry": { "type": "Point", "coordinates": [ 103.7641858, 1.3799583 ] } },
{ "type": "Feature", "properties": { "osm_id": 2424588034, "name": "Flock Café", "amenity": "cafe", "cuisine": "international", "addr_street": "Moh Guan Terrace", "addr_housenumber": "78", "addr_postcode": "", "opening_hours": "", "phone": "", "website": "" }, "geometry": { "type": "Point", "coordinates": [ 103.8302138, 1.2835291 ] } },
{ "type": "Feature", "properties": { "osm_id": 2491830720, "name": "NTUC Foodfare", "amenity": "cafe", "cuisine": "regional", "addr_street": "Clementi Avenue 1", "addr_housenumber": "420A", "addr_postcode": "", "opening_hours": "", "phone": "", "website": "" }, "geometry": { "type": "Point", "coordinates": [ 103.7685046, 1.3096712 ] } },
{ "type": "Feature", "properties": { "osm_id": 2491833337, "name": "One More Bread", "amenity": "cafe", "cuisine": "sandwich", "addr_street": "", "addr_housenumber": "", "addr_postcode": "", "opening_hours": "", "phone": "", "website": "" }, "geometry": { "type": "Point", "coordinates": [ 103.7686452, 1.3099436 ] } },
{ "type": "Feature", "properties": { "osm_id": 2494611923, "name": "", "amenity": "cafe", "cuisine": "", "addr_street": "", "addr_housenumber": "", "addr_postcode": "", "opening_hours": "", "phone": "", "website": "" }, "geometry": { "type": "Point", "coordinates": [ 103.7718, 1.3019245 ] } },
{ "type": "Feature", "properties": { "osm_id": 2502364474, "name": "Ya Kun Kaya Toast", "amenity": "cafe", "cuisine": "coffee_shop", "addr_street": "", "addr_housenumber": "200 #B1-11", "addr_postcode": "188024", "opening_hours": "", "phone": "", "website": "" }, "geometry": { "type": "Point", "coordinates": [ 103.8559122, 1.3002472 ] } },
{ "type": "Feature", "properties": { "osm_id": 2517244454, "name": "Wimbly Lu", "amenity": "cafe", "cuisine": "ice_cream", "addr_street": "", "addr_housenumber": "", "addr_postcode": "", "opening_hours": "", "phone": "", "website": "" }, "geometry": { "type": "Point", "coordinates": [ 103.8675719, 1.347443 ] } },
{ "type": "Feature", "properties": { "osm_id": 2590312790, "name": "Starbucks", "amenity": "cafe", "cuisine": "coffee_shop", "addr_street": "Jalan Wong Ah Fook", "addr_housenumber": "106;108", "addr_postcode": "80000", "opening_hours": "", "phone": "", "website": "" }, "geometry": { "type": "Point", "coordinates": [ 103.7641027, 1.4608373 ] } },
{ "type": "Feature", "properties": { "osm_id": 2685422045, "name": "Zebra Cafe", "amenity": "cafe", "cuisine": "", "addr_street": "", "addr_housenumber": "", "addr_postcode": "", "opening_hours": "", "phone": "", "website": "" }, "geometry": { "type": "Point", "coordinates": [ 103.7894548, 1.4007235 ] } },
{ "type": "Feature", "properties": { "osm_id": 2700916762, "name": "Starbucks", "amenity": "cafe", "cuisine": "coffee_shop", "addr_street": "Robinson Road", "addr_housenumber": "168", "addr_postcode": "068912", "opening_hours": "", "phone": "", "website": "" }, "geometry": { "type": "Point", "coordinates": [ 103.8472839, 1.2775874 ] } },
{ "type": "Feature", "properties": { "osm_id": 3029151994, "name": "The Coffee Bean & Tea Leaf", "amenity": "cafe", "cuisine": "coffee_shop", "addr_street": "Lower Kent Ridge Road, National University Hospital", "addr_housenumber": "5", "addr_postcode": "119074", "opening_hours": "", "phone": "", "website": "" }, "geometry": { "type": "Point", "coordinates": [ 103.7839807, 1.2944378 ] } },
{ "type": "Feature", "properties": { "osm_id": 3038844437, "name": "Coffee Shop", "amenity": "cafe", "cuisine": "coffee_shop", "addr_street": "Bukit Merah Central", "addr_housenumber": "161", "addr_postcode": "150161", "opening_hours": "", "phone": "", "website": "" }, "geometry": { "type": "Point", "coordinates": [ 103.8156713, 1.2833675 ] } },
{ "type": "Feature", "properties": { "osm_id": 3038844438, "name": "Coffee Shop", "amenity": "cafe", "cuisine": "coffee_shop", "addr_street": "", "addr_housenumber": "", "addr_postcode": "", "opening_hours": "", "phone": "", "website": "" }, "geometry": { "type": "Point", "coordinates": [ 103.8166311, 1.283037 ] } },
{ "type": "Feature", "properties": { "osm_id": 3098274130, "name": "Starbucks", "amenity": "cafe", "cuisine": "coffee_shop", "addr_street": "Sentosa Gateway, Universal Studios Singapore", "addr_housenumber": "28", "addr_postcode": "098138", "opening_hours": "Mo-Th, Su 07:30-22:30; Fr, Sa 00:00-24:00", "phone": "+65 6910 1223", "website": "" }, "geometry": { "type": "Point", "coordinates": [ 103.820019, 1.256334 ] } },
{ "type": "Feature", "properties": { "osm_id": 3109381268, "name": "Starbucks", "amenity": "cafe", "cuisine": "coffee_shop", "addr_street": "Jalan Jamal", "addr_housenumber": "3", "addr_postcode": "457602", "opening_hours": "", "phone": "", "website": "" }, "geometry": { "type": "Point", "coordinates": [ 103.9254991, 1.3129222 ] } },
{ "type": "Feature", "properties": { "osm_id": 3133247375, "name": "Brussels Beer", "amenity": "cafe", "cuisine": "", "addr_street": "", "addr_housenumber": "", "addr_postcode": "", "opening_hours": "", "phone": "", "website": "" }, "geometry": { "type": "Point", "coordinates": [ 103.6573423, 1.416842 ] } },
{ "type": "Feature", "properties": { "osm_id": 3133247378, "name": "OldTown White Coffee", "amenity": "cafe", "cuisine": "coffee_shop;malaysian", "addr_street": "", "addr_housenumber": "", "addr_postcode": "", "opening_hours": "", "phone": "", "website": "" }, "geometry": { "type": "Point", "coordinates": [ 103.6574459, 1.4166856 ] } },
{ "type": "Feature", "properties": { "osm_id": 3133247381, "name": "Starbucks", "amenity": "cafe", "cuisine": "coffee_shop", "addr_street": "", "addr_housenumber": "", "addr_postcode": "", "opening_hours": "", "phone": "", "website": "" }, "geometry": { "type": "Point", "coordinates": [ 103.6570579, 1.4173197 ] } },
{ "type": "Feature", "properties": { "osm_id": 3247461146, "name": "Hawker Centre", "amenity": "cafe", "cuisine": "chicken", "addr_street": "", "addr_housenumber": "", "addr_postcode": "", "opening_hours": "", "phone": "", "website": "" }, "geometry": { "type": "Point", "coordinates": [ 103.8451825, 1.3412375 ] } },
{ "type": "Feature", "properties": { "osm_id": 3307075245, "name": "Starbucks", "amenity": "cafe", "cuisine": "coffee_shop", "addr_street": "Eu Tong Sen Street", "addr_housenumber": "", "addr_postcode": "059817", "opening_hours": "Su-Th 07:30-24:00, Fr-Sa", "phone": "", "website": "" }, "geometry": { "type": "Point", "coordinates": [ 103.846844, 1.2887385 ] } },
{ "type": "Feature", "properties": { "osm_id": 3327929010, "name": "The Coffee Bean & Tea Leaf", "amenity": "cafe", "cuisine": "coffee_shop", "addr_street": "", "addr_housenumber": "", "addr_postcode": "", "opening_hours": "", "phone": "", "website": "" }, "geometry": { "type": "Point", "coordinates": [ 103.8616273, 1.351395 ] } },
{ "type": "Feature", "properties": { "osm_id": 3336359310, "name": "The Audacious Cakery", "amenity": "cafe", "cuisine": "", "addr_street": "Everton Park", "addr_housenumber": "2", "addr_postcode": "081002", "opening_hours": "Tu-Sa 10:00-19:00; Su 10:00-17:00; Mo off", "phone": "+65 6223 3047", "website": "http://theaudaciouscakery.com/" }, "geometry": { "type": "Point", "coordinates": [ 103.839582, 1.2774171 ] } },
{ "type": "Feature", "properties": { "osm_id": 3337198922, "name": "Toast Box", "amenity": "cafe", "cuisine": "coffee", "addr_street": "French Road", "addr_housenumber": "", "addr_postcode": "200809", "opening_hours": "07:30-22:00", "phone": "+65 6291 2016", "website": "" }, "geometry": { "type": "Point", "coordinates": [ 103.8622322, 1.3081278 ] } },
{ "type": "Feature", "properties": { "osm_id": 3339866877, "name": "BLK 815 Coffee Shop", "amenity": "cafe", "cuisine": "coffee_shop", "addr_street": "", "addr_housenumber": "815", "addr_postcode": "", "opening_hours": "", "phone": "", "website": "" }, "geometry": { "type": "Point", "coordinates": [ 103.6960335, 1.345268 ] } },
{ "type": "Feature", "properties": { "osm_id": 3339866878, "name": "Blk 851 Coffee Shop", "amenity": "cafe", "cuisine": "coffee_shop", "addr_street": "Jurong West Street 81", "addr_housenumber": "851", "addr_postcode": "640851", "opening_hours": "", "phone": "", "website": "" }, "geometry": { "type": "Point", "coordinates": [ 103.6927317, 1.3467079 ] } },
{ "type": "Feature", "properties": { "osm_id": 3345261320, "name": "Cedele", "amenity": "cafe", "cuisine": "", "addr_street": "", "addr_housenumber": "", "addr_postcode": "", "opening_hours": "", "phone": "", "website": "" }, "geometry": { "type": "Point", "coordinates": [ 103.800271, 1.2745671 ] } },
{ "type": "Feature", "properties": { "osm_id": 3355441060, "name": "Toast Box", "amenity": "cafe", "cuisine": "coffee_shop", "addr_street": "", "addr_housenumber": "", "addr_postcode": "", "opening_hours": "", "phone": "", "website": "" }, "geometry": { "type": "Point", "coordinates": [ 103.743168, 1.332407 ] } },
{ "type": "Feature", "properties": { "osm_id": 3355457221, "name": "", "amenity": "cafe", "cuisine": "coffee_shop", "addr_street": "", "addr_housenumber": "", "addr_postcode": "", "opening_hours": "24/7", "phone": "", "website": "" }, "geometry": { "type": "Point", "coordinates": [ 103.6928176, 1.3421238 ] } },
{ "type": "Feature", "properties": { "osm_id": 3369782863, "name": "The Reading Room", "amenity": "cafe", "cuisine": "international", "addr_street": "Bukit Pasoh Road", "addr_housenumber": "19", "addr_postcode": "089833", "opening_hours": "11:00-23:30", "phone": "+65 6220 9019", "website": "https://www.facebook.com/TheReadingRoom.com.sg" }, "geometry": { "type": "Point", "coordinates": [ 103.8405488, 1.2790186 ] } },
{ "type": "Feature", "properties": { "osm_id": 3376091072, "name": "One 2 Drink", "amenity": "cafe", "cuisine": "coffee_shop", "addr_street": "Horne Road", "addr_housenumber": "78", "addr_postcode": "", "opening_hours": "", "phone": "", "website": "" }, "geometry": { "type": "Point", "coordinates": [ 103.8607693, 1.310709 ] } },
{ "type": "Feature", "properties": { "osm_id": 3376091793, "name": "Chye Seng Huat Hardware", "amenity": "cafe", "cuisine": "coffee_shop", "addr_street": "Tyrwhitt Road", "addr_housenumber": "150", "addr_postcode": "207563", "opening_hours": "Mo-Su 08:30-22:00; Mo[1] off", "phone": "+65 6396 0609", "website": "https://cshhcoffee.com/" }, "geometry": { "type": "Point", "coordinates": [ 103.8603282, 1.3115727 ] } },
{ "type": "Feature", "properties": { "osm_id": 3448389061, "name": "Mariners Cafe", "amenity": "cafe", "cuisine": "", "addr_street": "", "addr_housenumber": "", "addr_postcode": "", "opening_hours": "", "phone": "", "website": "" }, "geometry": { "type": "Point", "coordinates": [ 103.7636781, 1.4565068 ] } },
{ "type": "Feature", "properties": { "osm_id": 3448389079, "name": "Chaiwalla & Co", "amenity": "cafe", "cuisine": "", "addr_street": "", "addr_housenumber": "", "addr_postcode": "", "opening_hours": "", "phone": "", "website": "" }, "geometry": { "type": "Point", "coordinates": [ 103.7640067, 1.4564965 ] } },
{ "type": "Feature", "properties": { "osm_id": 3498346534, "name": "Toast Box", "amenity": "cafe", "cuisine": "coffee_shop", "addr_street": "Tai Seng Street", "addr_housenumber": "30", "addr_postcode": "534013", "opening_hours": "", "phone": "", "website": "" }, "geometry": { "type": "Point", "coordinates": [ 103.8895358, 1.3341442 ] } },
{ "type": "Feature", "properties": { "osm_id": 3524818024, "name": "Costa", "amenity": "cafe", "cuisine": "coffee_shop", "addr_street": "", "addr_housenumber": "", "addr_postcode": "", "opening_hours": "", "phone": "", "website": "" }, "geometry": { "type": "Point", "coordinates": [ 103.8528838, 1.2933422 ] } },
{ "type": "Feature", "properties": { "osm_id": 3611074838, "name": "The Coffee Bean & Tea Leaf", "amenity": "cafe", "cuisine": "coffee_shop", "addr_street": "1 Pasir Ris Close, E! Hub @Downtown East", "addr_housenumber": "#02-106", "addr_postcode": "519599", "opening_hours": "", "phone": "", "website": "" }, "geometry": { "type": "Point", "coordinates": [ 103.9556357, 1.3762151 ] } },
{ "type": "Feature", "properties": { "osm_id": 3611085409, "name": "McCafé", "amenity": "cafe", "cuisine": "coffee_shop", "addr_street": "", "addr_housenumber": "", "addr_postcode": "", "opening_hours": "", "phone": "", "website": "" }, "geometry": { "type": "Point", "coordinates": [ 103.9551804, 1.3769504 ] } },
{ "type": "Feature", "properties": { "osm_id": 3653443302, "name": "De Riya", "amenity": "cafe", "cuisine": "", "addr_street": "Joo Chiat Road", "addr_housenumber": "146", "addr_postcode": "", "opening_hours": "", "phone": "+6564405792", "website": "" }, "geometry": { "type": "Point", "coordinates": [ 103.8994784, 1.3133782 ] } },
{ "type": "Feature", "properties": { "osm_id": 3653443320, "name": "JC Coffee Houzz", "amenity": "cafe", "cuisine": "", "addr_street": "Joo Chiat Road", "addr_housenumber": "", "addr_postcode": "", "opening_hours": "", "phone": "", "website": "" }, "geometry": { "type": "Point", "coordinates": [ 103.9000546, 1.3128264 ] } },
{ "type": "Feature", "properties": { "osm_id": 3653443348, "name": "Samsim Vietnam Cafe", "amenity": "cafe", "cuisine": "", "addr_street": "Joo Chiat Road", "addr_housenumber": "", "addr_postcode": "", "opening_hours": "", "phone": "", "website": "" }, "geometry": { "type": "Point", "coordinates": [ 103.9013242, 1.3110415 ] } },
{ "type": "Feature", "properties": { "osm_id": 3659715499, "name": "Toast Box", "amenity": "cafe", "cuisine": "coffee_shop", "addr_street": "321 Alexandra Road, Alexandra Central", "addr_housenumber": "#01-17", "addr_postcode": "159971", "opening_hours": "", "phone": "", "website": "" }, "geometry": { "type": "Point", "coordinates": [ 103.8050829, 1.2873392 ] } },
{ "type": "Feature", "properties": { "osm_id": 3666196448, "name": "Starbucks", "amenity": "cafe", "cuisine": "coffee_shop", "addr_street": "370 Alexandra Road, Anchorpoint Shopping Centre,", "addr_housenumber": "#01-05/06", "addr_postcode": "159953", "opening_hours": "", "phone": "", "website": "" }, "geometry": { "type": "Point", "coordinates": [ 103.8052495, 1.2888107 ] } },
{ "type": "Feature", "properties": { "osm_id": 3670497548, "name": "Starbucks", "amenity": "cafe", "cuisine": "coffee_shop", "addr_street": "North Bridge Road", "addr_housenumber": "585", "addr_postcode": "188770", "opening_hours": "Mo-Fr 07:30-20:00; Sa-Su,PH 08:00-20:00", "phone": "", "website": "" }, "geometry": { "type": "Point", "coordinates": [ 103.8569123, 1.3015253 ] } },
{ "type": "Feature", "properties": { "osm_id": 3681772655, "name": "The Coffee Bean & Tea Leaf", "amenity": "cafe", "cuisine": "coffee_shop", "addr_street": "Jurong West Central 2", "addr_housenumber": "1", "addr_postcode": "648886", "opening_hours": "", "phone": "", "website": "" }, "geometry": { "type": "Point", "coordinates": [ 103.7070854, 1.3395564 ] } },
{ "type": "Feature", "properties": { "osm_id": 3681773961, "name": "Koi Express", "amenity": "cafe", "cuisine": "bubble_tea", "addr_street": "", "addr_housenumber": "", "addr_postcode": "", "opening_hours": "", "phone": "", "website": "" }, "geometry": { "type": "Point", "coordinates": [ 103.7060422, 1.3386937 ] } },
{ "type": "Feature", "properties": { "osm_id": 3685105865, "name": "Starbucks", "amenity": "cafe", "cuisine": "coffee_shop", "addr_street": "Rochester Park", "addr_housenumber": "37", "addr_postcode": "138640", "opening_hours": "", "phone": "+65 6684 8538", "website": "https://www.starbucks.com/" }, "geometry": { "type": "Point", "coordinates": [ 103.7877447, 1.3054958 ] } },
{ "type": "Feature", "properties": { "osm_id": 3685108028, "name": "Delifrance", "amenity": "cafe", "cuisine": "", "addr_street": "Holland Road", "addr_housenumber": "293", "addr_postcode": "278628", "opening_hours": "", "phone": "", "website": "" }, "geometry": { "type": "Point", "coordinates": [ 103.7858139, 1.3174393 ] } },
{ "type": "Feature", "properties": { "osm_id": 3685108489, "name": "Jimmy Monkey Cafe & Bar", "amenity": "cafe", "cuisine": "", "addr_street": "One-North Gateway", "addr_housenumber": "9", "addr_postcode": "138643", "opening_hours": "", "phone": "+65 6777 8470", "website": "https://www.jimmymonkey.com/" }, "geometry": { "type": "Point", "coordinates": [ 103.7902619, 1.3018978 ] } },
{ "type": "Feature", "properties": { "osm_id": 3694984286, "name": "Toast Box", "amenity": "cafe", "cuisine": "coffee_shop", "addr_street": "", "addr_housenumber": "", "addr_postcode": "", "opening_hours": "", "phone": "", "website": "" }, "geometry": { "type": "Point", "coordinates": [ 103.9323727, 1.3444972 ] } },
{ "type": "Feature", "properties": { "osm_id": 3731325562, "name": "Percolate", "amenity": "cafe", "cuisine": "", "addr_street": "", "addr_housenumber": "", "addr_postcode": "", "opening_hours": "", "phone": "", "website": "" }, "geometry": { "type": "Point", "coordinates": [ 103.935215, 1.3281295 ] } },
{ "type": "Feature", "properties": { "osm_id": 3739325132, "name": "", "amenity": "cafe", "cuisine": "", "addr_street": "", "addr_housenumber": "", "addr_postcode": "", "opening_hours": "", "phone": "", "website": "" }, "geometry": { "type": "Point", "coordinates": [ 103.6539714, 1.4681424 ] } },
{ "type": "Feature", "properties": { "osm_id": 3739330988, "name": "Paper Restaurant", "amenity": "cafe", "cuisine": "", "addr_street": "", "addr_housenumber": "", "addr_postcode": "", "opening_hours": "", "phone": "", "website": "" }, "geometry": { "type": "Point", "coordinates": [ 103.6644416, 1.4809514 ] } },
{ "type": "Feature", "properties": { "osm_id": 3756813815, "name": "Coffee-Hugg", "amenity": "cafe", "cuisine": "", "addr_street": "McCallum Street", "addr_housenumber": "21", "addr_postcode": "069047", "opening_hours": "", "phone": "", "website": "" }, "geometry": { "type": "Point", "coordinates": [ 103.8472103, 1.2795459 ] } },
{ "type": "Feature", "properties": { "osm_id": 3756813986, "name": "Sarnie's Cafe", "amenity": "cafe", "cuisine": "Western", "addr_street": "Telok Ayer Street", "addr_housenumber": "136", "addr_postcode": "068601", "opening_hours": "Mo-Fr 07:30-22:00; Sa-Su 09:00-16:00; Mo-Fr kitchen closes at 18:30", "phone": "+65 6224 6091", "website": "https://www.sarniescafe.com/" }, "geometry": { "type": "Point", "coordinates": [ 103.8480052, 1.2816102 ] } },
{ "type": "Feature", "properties": { "osm_id": 3756817953, "name": "Good Morning Nanyang Cafe", "amenity": "cafe", "cuisine": "", "addr_street": "Pagoda Street", "addr_housenumber": "75", "addr_postcode": "059234", "opening_hours": "", "phone": "+65 9836 2891", "website": "" }, "geometry": { "type": "Point", "coordinates": [ 103.8437169, 1.2836704 ] } },
{ "type": "Feature", "properties": { "osm_id": 3756830557, "name": "Cafe3", "amenity": "cafe", "cuisine": "", "addr_street": "Teo Hong Road", "addr_housenumber": "5", "addr_postcode": "088323", "opening_hours": "", "phone": "+65 6224 9368", "website": "" }, "geometry": { "type": "Point", "coordinates": [ 103.840749, 1.2802624 ] } },
{ "type": "Feature", "properties": { "osm_id": 3756859725, "name": "Eight Cafe & Bar", "amenity": "cafe", "cuisine": "", "addr_street": "Bukit Pasoh Road", "addr_housenumber": "8", "addr_postcode": "089822", "opening_hours": "", "phone": "+65 6220 4513", "website": "http://www.eightcafebar.com/" }, "geometry": { "type": "Point", "coordinates": [ 103.8409466, 1.27877 ] } },
{ "type": "Feature", "properties": { "osm_id": 3756864117, "name": "Bread & Hearth Artisinal Bakery Cafe", "amenity": "cafe", "cuisine": "", "addr_street": "Keong Saik Road", "addr_housenumber": "18", "addr_postcode": "", "opening_hours": "", "phone": "+65 6534 7800", "website": "http://breadandhearth.com/" }, "geometry": { "type": "Point", "coordinates": [ 103.8416049, 1.279998 ] } },
{ "type": "Feature", "properties": { "osm_id": 3756878282, "name": "The New Harbor Cafe And Bar", "amenity": "cafe", "cuisine": "", "addr_street": "Tanjong Pagar Road", "addr_housenumber": "114", "addr_postcode": "088529", "opening_hours": "", "phone": "+65 6226 2657", "website": "" }, "geometry": { "type": "Point", "coordinates": [ 103.8435064, 1.2778481 ] } },
{ "type": "Feature", "properties": { "osm_id": 3756885764, "name": "PS Cafe", "amenity": "cafe", "cuisine": "", "addr_street": "Ann Siang Road", "addr_housenumber": "45", "addr_postcode": "069719", "opening_hours": "Mo-We 11:30-23:00; Th-Fr 11:30-00:00; Sa 09:30-00:00; Su 09:30-23:00; Th[1] 11:30-01:00", "phone": "+65 6222 3143", "website": "https://www.pscafe.com/pscafe-at-ann-siang-hill-park/" }, "geometry": { "type": "Point", "coordinates": [ 103.8463297, 1.2806518 ] } },
{ "type": "Feature", "properties": { "osm_id": 3756924879, "name": "Vanilla Bar and Cafe", "amenity": "cafe", "cuisine": "", "addr_street": "Boon Tat Street", "addr_housenumber": "3", "addr_postcode": "069612", "opening_hours": "", "phone": "+65 6423 0366", "website": "http://www.vanillacafe.com.sg/" }, "geometry": { "type": "Point", "coordinates": [ 103.8477241, 1.2817131 ] } },
{ "type": "Feature", "properties": { "osm_id": 3759079385, "name": "Café Insadong", "amenity": "cafe", "cuisine": "", "addr_street": "South Bridge Road", "addr_housenumber": "279", "addr_postcode": "058828", "opening_hours": "", "phone": "+65 8533 2003", "website": "" }, "geometry": { "type": "Point", "coordinates": [ 103.8451344, 1.2817757 ] } },
{ "type": "Feature", "properties": { "osm_id": 3759784388, "name": "Blue Mist Cafe", "amenity": "cafe", "cuisine": "", "addr_street": "", "addr_housenumber": "7", "addr_postcode": "", "opening_hours": "", "phone": "+65 6220 1820", "website": "http://www.facebook.com/BLUEMISTCafe" }, "geometry": { "type": "Point", "coordinates": [ 103.8432327, 1.2769673 ] } },
{ "type": "Feature", "properties": { "osm_id": 3759784407, "name": "Tuxedo", "amenity": "cafe", "cuisine": "", "addr_street": "Gopeng Street", "addr_housenumber": "1", "addr_postcode": "078862", "opening_hours": "", "phone": "", "website": "" }, "geometry": { "type": "Point", "coordinates": [ 103.8435529, 1.2760366 ] } },
{ "type": "Feature", "properties": { "osm_id": 3759784409, "name": "5 The Moments Cafe", "amenity": "cafe", "cuisine": "", "addr_street": "Tanjong Pagar Road", "addr_housenumber": "73", "addr_postcode": "088494", "opening_hours": "Su-Th 12:00-23:00; Fr,Sa 12:00-23:30", "phone": "+65 6222 5337", "website": "http://www.5themoments.com/" }, "geometry": { "type": "Point", "coordinates": [ 103.8438142, 1.278066 ] } },
{ "type": "Feature", "properties": { "osm_id": 3759786768, "name": "Drury Lane", "amenity": "cafe", "cuisine": "", "addr_street": "Tanjong Pagar Road", "addr_housenumber": "94", "addr_postcode": "088515", "opening_hours": "", "phone": "+65 6222 6698", "website": "http://www.drurylane.sg/" }, "geometry": { "type": "Point", "coordinates": [ 103.8435791, 1.2782815 ] } },
{ "type": "Feature", "properties": { "osm_id": 3759819048, "name": "Yuen Yeung", "amenity": "cafe", "cuisine": "dessert", "addr_street": "Neil Road", "addr_housenumber": "43", "addr_postcode": "088825", "opening_hours": "11:00-23:30", "phone": "", "website": "" }, "geometry": { "type": "Point", "coordinates": [ 103.8427965, 1.2797635 ] } },
{ "type": "Feature", "properties": { "osm_id": 3759824406, "name": "Qafe by Night", "amenity": "cafe", "cuisine": "", "addr_street": "Tanjong Pagar Road", "addr_housenumber": "21", "addr_postcode": "", "opening_hours": "", "phone": "", "website": "" }, "geometry": { "type": "Point", "coordinates": [ 103.8440883, 1.2795007 ] } },
{ "type": "Feature", "properties": { "osm_id": 3759828393, "name": "Ardent's Cafe Bar", "amenity": "cafe", "cuisine": "", "addr_street": "Neil Road", "addr_housenumber": "80", "addr_postcode": "", "opening_hours": "", "phone": "", "website": "" }, "geometry": { "type": "Point", "coordinates": [ 103.8423536, 1.2796764 ] } },
{ "type": "Feature", "properties": { "osm_id": 3759828395, "name": "fieldnotes", "amenity": "cafe", "cuisine": "coffee_shop", "addr_street": "Neil Road", "addr_housenumber": "41", "addr_postcode": "088824", "opening_hours": "Su-Th 11:30-09:00; Fr-Sa 11:00-23:00", "phone": "+65 65399781", "website": "" }, "geometry": { "type": "Point", "coordinates": [ 103.8428436, 1.2797824 ] } },
{ "type": "Feature", "properties": { "osm_id": 3759828400, "name": "May Wong's Cafe", "amenity": "cafe", "cuisine": "", "addr_street": "Neil Road", "addr_housenumber": "78A", "addr_postcode": "", "opening_hours": "", "phone": "+65 6423 9232", "website": "https://www.homeofthebluespin.com/" }, "geometry": { "type": "Point", "coordinates": [ 103.8423784, 1.2797301 ] } },
{ "type": "Feature", "properties": { "osm_id": 3759832489, "name": "ReStore", "amenity": "cafe", "cuisine": "", "addr_street": "Tanjong Pagar Road", "addr_housenumber": "124", "addr_postcode": "088533", "opening_hours": "", "phone": "+65 6222 3510", "website": "http://restoreliving.blogspot.sg/" }, "geometry": { "type": "Point", "coordinates": [ 103.8433965, 1.2776397 ] } },
{ "type": "Feature", "properties": { "osm_id": 3789175693, "name": "KOI Thé", "amenity": "cafe", "cuisine": "bubble_tea", "addr_street": "North Buona Vista Road", "addr_housenumber": "#01-02/03, 100", "addr_postcode": "139345", "opening_hours": "11:00-22:00", "phone": "+65 6779 5643", "website": "" }, "geometry": { "type": "Point", "coordinates": [ 103.7901223, 1.3072164 ] } },
{ "type": "Feature", "properties": { "osm_id": 3810777678, "name": "Strangers' Reunion Waffles", "amenity": "cafe", "cuisine": "", "addr_street": "Kampong Bahru Road", "addr_housenumber": "35", "addr_postcode": "169356", "opening_hours": "", "phone": "+65 6222 4869", "website": "https://www.facebook.com/StrangersReunion/" }, "geometry": { "type": "Point", "coordinates": [ 103.8363345, 1.2769715 ] } },
{ "type": "Feature", "properties": { "osm_id": 3812412509, "name": "Artisan Boulangerie Co", "amenity": "cafe", "cuisine": "", "addr_street": "Marina View", "addr_housenumber": "#01-02, Asia Square Tower 2, 12", "addr_postcode": "018961", "opening_hours": "", "phone": "+65 6844 9907", "website": "https://artisanbakery.com.sg/" }, "geometry": { "type": "Point", "coordinates": [ 103.8508048, 1.2783661 ] } },
{ "type": "Feature", "properties": { "osm_id": 3812816407, "name": "Dimbulah (Market Street)", "amenity": "cafe", "cuisine": "", "addr_street": "Market Street", "addr_housenumber": "#01-01, 137", "addr_postcode": "048943", "opening_hours": "", "phone": "", "website": "https://dimbulahcoffee.com/" }, "geometry": { "type": "Point", "coordinates": [ 103.8504676, 1.2822928 ] } },
{ "type": "Feature", "properties": { "osm_id": 3818308630, "name": "Starbucks", "amenity": "cafe", "cuisine": "coffee_shop", "addr_street": "Raffles Quay", "addr_housenumber": "#01-01, Hong Leong Building, 16", "addr_postcode": "048581", "opening_hours": "", "phone": "+65 6534 8041", "website": "https://www.starbucks.com.sg/" }, "geometry": { "type": "Point", "coordinates": [ 103.8510261, 1.2811501 ] } },
{ "type": "Feature", "properties": { "osm_id": 3818313784, "name": "Starbucks", "amenity": "cafe", "cuisine": "coffee_shop", "addr_street": "Marina View", "addr_housenumber": "#02-22, Asia Square Tower 2, 12", "addr_postcode": "018961", "opening_hours": "", "phone": "+65 6844 9880", "website": "https://www.starbucks.com.sg/" }, "geometry": { "type": "Point", "coordinates": [ 103.8504885, 1.2781237 ] } },
{ "type": "Feature", "properties": { "osm_id": 3819333549, "name": "Baker & Cook", "amenity": "cafe", "cuisine": "pizza;coffee_shop;sandwich;bread", "addr_street": "Eng Kong Terrace", "addr_housenumber": "21", "addr_postcode": "598993", "opening_hours": "Mo-Su 07:30-21:30", "phone": "+65 6219 3220", "website": "https://www.bakerandcook.biz/blogs/locations/coming-soon-1" }, "geometry": { "type": "Point", "coordinates": [ 103.7681279, 1.3363877 ] } },
{ "type": "Feature", "properties": { "osm_id": 3828352882, "name": "Baker And Cook", "amenity": "cafe", "cuisine": "coffee_shop", "addr_street": "Jalan Merah Saga", "addr_housenumber": "44", "addr_postcode": "278116", "opening_hours": "", "phone": "+65 6472 0998", "website": "" }, "geometry": { "type": "Point", "coordinates": [ 103.7966535, 1.3115635 ] } },
{ "type": "Feature", "properties": { "osm_id": 3830449688, "name": "Gastronomia", "amenity": "cafe", "cuisine": "", "addr_street": "", "addr_housenumber": "", "addr_postcode": "", "opening_hours": "", "phone": "", "website": "" }, "geometry": { "type": "Point", "coordinates": [ 103.7964405, 1.3105871 ] } },
{ "type": "Feature", "properties": { "osm_id": 3840260292, "name": "Toast Box", "amenity": "cafe", "cuisine": "coffee_shop", "addr_street": "Marina View", "addr_housenumber": "#02-06 Asia Square Tower 1, 8", "addr_postcode": "018960", "opening_hours": "", "phone": "+65 6636 0435", "website": "https://www.toastbox.com.sg/" }, "geometry": { "type": "Point", "coordinates": [ 103.8509999, 1.2793273 ] } },
{ "type": "Feature", "properties": { "osm_id": 3876294284, "name": "Craftsmen Coffee", "amenity": "cafe", "cuisine": "", "addr_street": "", "addr_housenumber": "", "addr_postcode": "", "opening_hours": "", "phone": "", "website": "" }, "geometry": { "type": "Point", "coordinates": [ 103.9234293, 1.3130106 ] } },
{ "type": "Feature", "properties": { "osm_id": 3876295088, "name": "baker & cook", "amenity": "cafe", "cuisine": "french;pizza;ice_cream", "addr_street": "Swan Lake Avenue", "addr_housenumber": "1", "addr_postcode": "455700", "opening_hours": "Mo-Su 07:30-22:00", "phone": "", "website": "https://www.bakerandcook.biz/" }, "geometry": { "type": "Point", "coordinates": [ 103.9243106, 1.3209325 ] } },
{ "type": "Feature", "properties": { "osm_id": 3890062578, "name": "Dutch Colony Coffee Co.", "amenity": "cafe", "cuisine": "coffee_shop", "addr_street": "Frankel Avenue", "addr_housenumber": "113", "addr_postcode": "458230", "opening_hours": "Mo-Su,PH 08:30-19:00", "phone": "", "website": "" }, "geometry": { "type": "Point", "coordinates": [ 103.9195276, 1.3142525 ] } },
{ "type": "Feature", "properties": { "osm_id": 3891548620, "name": "Paris Baguette", "amenity": "cafe", "cuisine": "", "addr_street": "", "addr_housenumber": "", "addr_postcode": "", "opening_hours": "24/7", "phone": "", "website": "" }, "geometry": { "type": "Point", "coordinates": [ 103.9893282, 1.3562344 ] } },
{ "type": "Feature", "properties": { "osm_id": 3891548629, "name": "Starbucks", "amenity": "cafe", "cuisine": "coffee_shop", "addr_street": "", "addr_housenumber": "", "addr_postcode": "", "opening_hours": "24/7", "phone": "", "website": "" }, "geometry": { "type": "Point", "coordinates": [ 103.9904139, 1.3613131 ] } },
{ "type": "Feature", "properties": { "osm_id": 3891550931, "name": "Kaffe & Tiast", "amenity": "cafe", "cuisine": "", "addr_street": "", "addr_housenumber": "", "addr_postcode": "", "opening_hours": "24/7", "phone": "", "website": "" }, "geometry": { "type": "Point", "coordinates": [ 103.9884154, 1.3541873 ] } },
{ "type": "Feature", "properties": { "osm_id": 3891551392, "name": "1983 Cafe Nanyang", "amenity": "cafe", "cuisine": "", "addr_street": "", "addr_housenumber": "", "addr_postcode": "", "opening_hours": "24/7", "phone": "", "website": "" }, "geometry": { "type": "Point", "coordinates": [ 103.9897371, 1.3564685 ] } },
{ "type": "Feature", "properties": { "osm_id": 3913870659, "name": "The Tastemaker Store", "amenity": "cafe", "cuisine": "", "addr_street": "", "addr_housenumber": "", "addr_postcode": "", "opening_hours": "", "phone": "", "website": "" }, "geometry": { "type": "Point", "coordinates": [ 103.8284699, 1.2891012 ] } },
{ "type": "Feature", "properties": { "osm_id": 3922461042, "name": "Starbucks", "amenity": "cafe", "cuisine": "coffee_shop", "addr_street": "Nanyang Drive", "addr_housenumber": "76", "addr_postcode": "637331", "opening_hours": "", "phone": "", "website": "" }, "geometry": { "type": "Point", "coordinates": [ 103.6801219, 1.3469027 ] } },
{ "type": "Feature", "properties": { "osm_id": 3922463559, "name": "Geláre", "amenity": "cafe", "cuisine": "", "addr_street": "Nanyang Avenue", "addr_housenumber": "50", "addr_postcode": "639798", "opening_hours": "Mo-Fr 10:00-18:00", "phone": "", "website": "" }, "geometry": { "type": "Point", "coordinates": [ 103.680847, 1.3469695 ] } },
{ "type": "Feature", "properties": { "osm_id": 3922463562, "name": "Coffee Faculty", "amenity": "cafe", "cuisine": "coffee_shop", "addr_street": "50 Nanyang Avenue, Nanyang Technological University", "addr_housenumber": "SS1-01-05/SS1-01-05A (Opposite Nanyang Auditorium", "addr_postcode": "639798", "opening_hours": "Mo-Fr 08:00-18:00; SH 08:00-15:00; Sa-Su off", "phone": "", "website": "" }, "geometry": { "type": "Point", "coordinates": [ 103.6804846, 1.3441917 ] } },
{ "type": "Feature", "properties": { "osm_id": 3922463563, "name": "Art Pastry @ ADM", "amenity": "cafe", "cuisine": "", "addr_street": "", "addr_housenumber": "", "addr_postcode": "", "opening_hours": "", "phone": "", "website": "" }, "geometry": { "type": "Point", "coordinates": [ 103.6838395, 1.3496947 ] } },
{ "type": "Feature", "properties": { "osm_id": 3924788011, "name": "Ya Kun Kaya Toast", "amenity": "cafe", "cuisine": "coffee_shop", "addr_street": "", "addr_housenumber": "", "addr_postcode": "", "opening_hours": "Mo-Fr 07:30-21:00; Sa,Su 07:30-22:00", "phone": "", "website": "" }, "geometry": { "type": "Point", "coordinates": [ 103.7645441, 1.3793713 ] } },
{ "type": "Feature", "properties": { "osm_id": 3924788014, "name": "Li-Ho", "amenity": "cafe", "cuisine": "bubble_tea", "addr_street": "", "addr_housenumber": "", "addr_postcode": "", "opening_hours": "", "phone": "", "website": "" }, "geometry": { "type": "Point", "coordinates": [ 103.7644596, 1.3799561 ] } },
{ "type": "Feature", "properties": { "osm_id": 3924788022, "name": "Mr Bean", "amenity": "cafe", "cuisine": "", "addr_street": "", "addr_housenumber": "", "addr_postcode": "", "opening_hours": "", "phone": "", "website": "" }, "geometry": { "type": "Point", "coordinates": [ 103.7643445, 1.3801583 ] } },
{ "type": "Feature", "properties": { "osm_id": 3924939076, "name": "Fun Toast", "amenity": "cafe", "cuisine": "", "addr_street": "Woodlands Road", "addr_housenumber": "1", "addr_postcode": "", "opening_hours": "07:15-20:00", "phone": "+65 6612 1736", "website": "https://www.funtoast.com.sg/" }, "geometry": { "type": "Point", "coordinates": [ 103.7605089, 1.3799401 ] } },
{ "type": "Feature", "properties": { "osm_id": 3937118992, "name": "Vernacular Coffee", "amenity": "cafe", "cuisine": "coffee_shop", "addr_street": "Guillemard Road", "addr_housenumber": "100", "addr_postcode": "", "opening_hours": "", "phone": "", "website": "" }, "geometry": { "type": "Point", "coordinates": [ 103.881877, 1.3101303 ] } },
{ "type": "Feature", "properties": { "osm_id": 3937328783, "name": "The Sugar Pantry", "amenity": "cafe", "cuisine": "", "addr_street": "", "addr_housenumber": "", "addr_postcode": "", "opening_hours": "", "phone": "", "website": "" }, "geometry": { "type": "Point", "coordinates": [ 103.8173813, 1.497121 ] } },
{ "type": "Feature", "properties": { "osm_id": 3937328785, "name": "Lavender Bistro & Cafe", "amenity": "cafe", "cuisine": "", "addr_street": "", "addr_housenumber": "", "addr_postcode": "", "opening_hours": "", "phone": "", "website": "" }, "geometry": { "type": "Point", "coordinates": [ 103.8189774, 1.4955468 ] } },
{ "type": "Feature", "properties": { "osm_id": 3938018074, "name": "Koi Cafe", "amenity": "cafe", "cuisine": "", "addr_street": "Yishun Central 1", "addr_housenumber": "51", "addr_postcode": "768794", "opening_hours": "", "phone": "", "website": "" }, "geometry": { "type": "Point", "coordinates": [ 103.8362533, 1.429839 ] } },
{ "type": "Feature", "properties": { "osm_id": 3939996352, "name": "Mr Bean", "amenity": "cafe", "cuisine": "", "addr_street": "", "addr_housenumber": "", "addr_postcode": "", "opening_hours": "", "phone": "", "website": "" }, "geometry": { "type": "Point", "coordinates": [ 103.7443488, 1.3844797 ] } },
{ "type": "Feature", "properties": { "osm_id": 3939996353, "name": "KOI Thé", "amenity": "cafe", "cuisine": "", "addr_street": "", "addr_housenumber": "", "addr_postcode": "", "opening_hours": "", "phone": "", "website": "" }, "geometry": { "type": "Point", "coordinates": [ 103.7443915, 1.3844745 ] } },
{ "type": "Feature", "properties": { "osm_id": 3941996106, "name": "Starbucks", "amenity": "cafe", "cuisine": "coffee_shop", "addr_street": "Hillview Rise", "addr_housenumber": "4", "addr_postcode": "667979", "opening_hours": "Su-Th 08:00-22:00, Fr,Sa 08:00-24:00", "phone": "", "website": "" }, "geometry": { "type": "Point", "coordinates": [ 103.7645182, 1.3631363 ] } },
{ "type": "Feature", "properties": { "osm_id": 3977709485, "name": "La Marelle", "amenity": "cafe", "cuisine": "", "addr_street": "", "addr_housenumber": "", "addr_postcode": "", "opening_hours": "", "phone": "", "website": "" }, "geometry": { "type": "Point", "coordinates": [ 103.8597348, 1.3013591 ] } },
{ "type": "Feature", "properties": { "osm_id": 3980055545, "name": "DC Comics Super Heroes Cafe", "amenity": "cafe", "cuisine": "", "addr_street": "", "addr_housenumber": "", "addr_postcode": "", "opening_hours": "", "phone": "", "website": "" }, "geometry": { "type": "Point", "coordinates": [ 103.8602153, 1.2858906 ] } },
{ "type": "Feature", "properties": { "osm_id": 3987259010, "name": "Gink-Go", "amenity": "cafe", "cuisine": "local;breakfast", "addr_street": "", "addr_housenumber": "", "addr_postcode": "", "opening_hours": "Mo-Tu,Sa-Su,PH off; We-Th 07:30-12:30; Fr 07:30-19:30", "phone": "", "website": "" }, "geometry": { "type": "Point", "coordinates": [ 103.834908, 1.342473 ] } },
{ "type": "Feature", "properties": { "osm_id": 3987288129, "name": "ToMo Cafe", "amenity": "cafe", "cuisine": "", "addr_street": "Upper Thomson Road", "addr_housenumber": "185", "addr_postcode": "574333", "opening_hours": "", "phone": "", "website": "https://tomocafe.sg/" }, "geometry": { "type": "Point", "coordinates": [ 103.8353851, 1.351474 ] } },
{ "type": "Feature", "properties": { "osm_id": 3987288993, "name": "Habitat Coffee", "amenity": "cafe", "cuisine": "", "addr_street": "Upper Thomson Road", "addr_housenumber": "223", "addr_postcode": "574355", "opening_hours": "Tu-Su 10:00-22:00", "phone": "+6564562567", "website": "https://habitatcoffee.com.sg/" }, "geometry": { "type": "Point", "coordinates": [ 103.8345094, 1.3527826 ] } },
{ "type": "Feature", "properties": { "osm_id": 3990640106, "name": "Joe & Dough", "amenity": "cafe", "cuisine": "", "addr_street": "", "addr_housenumber": "", "addr_postcode": "", "opening_hours": "", "phone": "", "website": "" }, "geometry": { "type": "Point", "coordinates": [ 103.8398377, 1.3004616 ] } },
{ "type": "Feature", "properties": { "osm_id": 4018093552, "name": "Spinelli", "amenity": "cafe", "cuisine": "coffee_shop", "addr_street": "", "addr_housenumber": "", "addr_postcode": "", "opening_hours": "", "phone": "", "website": "" }, "geometry": { "type": "Point", "coordinates": [ 103.7776255, 1.2971068 ] } },
{ "type": "Feature", "properties": { "osm_id": 4066561924, "name": "(Working Title)", "amenity": "cafe", "cuisine": "coffee_shop", "addr_street": "McNally Street", "addr_housenumber": "1", "addr_postcode": "187940", "opening_hours": "Mo-Sa 09:30-22:00; Su 09:00-15:00", "phone": "", "website": "https://www.lowercase.sg/" }, "geometry": { "type": "Point", "coordinates": [ 103.8519556, 1.3029196 ] } },
{ "type": "Feature", "properties": { "osm_id": 4074595871, "name": "Chock Full of Beans", "amenity": "cafe", "cuisine": "coffee_shop", "addr_street": "Changi Village Road", "addr_housenumber": "4", "addr_postcode": "", "opening_hours": "", "phone": "", "website": "" }, "geometry": { "type": "Point", "coordinates": [ 103.9873065, 1.3894615 ] } },
{ "type": "Feature", "properties": { "osm_id": 4100884389, "name": "Sunny Coffee Shop", "amenity": "cafe", "cuisine": "", "addr_street": "", "addr_housenumber": "", "addr_postcode": "", "opening_hours": "", "phone": "", "website": "" }, "geometry": { "type": "Point", "coordinates": [ 104.0946554, 1.1876508 ] } },
{ "type": "Feature", "properties": { "osm_id": 4146903387, "name": "Mahmud’s Tandoor", "amenity": "cafe", "cuisine": "burger", "addr_street": "Kandahar Street", "addr_housenumber": "20", "addr_postcode": "198885", "opening_hours": "Mo off; Tu-Su 11:30-21:00", "phone": "", "website": "" }, "geometry": { "type": "Point", "coordinates": [ 103.8596039, 1.3023348 ] } },
{ "type": "Feature", "properties": { "osm_id": 4146933355, "name": "Symmetry cafe", "amenity": "cafe", "cuisine": "", "addr_street": "Jalan Kubor", "addr_housenumber": "9", "addr_postcode": "", "opening_hours": "Mo-Tu 09:00-21:00; We-Fr 10:00-23:00; Sa 08:30-23:00; Su 08:30-19:00", "phone": "", "website": "" }, "geometry": { "type": "Point", "coordinates": [ 103.8592205, 1.3039089 ] } },
{ "type": "Feature", "properties": { "osm_id": 4146933890, "name": "(working title)", "amenity": "cafe", "cuisine": "", "addr_street": "Arab Street", "addr_housenumber": "48", "addr_postcode": "", "opening_hours": "", "phone": "", "website": "" }, "geometry": { "type": "Point", "coordinates": [ 103.8596674, 1.3008318 ] } },
{ "type": "Feature", "properties": { "osm_id": 4197425123, "name": "Interieur", "amenity": "cafe", "cuisine": "", "addr_street": "", "addr_housenumber": "", "addr_postcode": "", "opening_hours": "", "phone": "", "website": "" }, "geometry": { "type": "Point", "coordinates": [ 103.6668487, 1.4804371 ] } },
{ "type": "Feature", "properties": { "osm_id": 4197433135, "name": "Tealive", "amenity": "cafe", "cuisine": "tea;coffee_shop", "addr_street": "", "addr_housenumber": "", "addr_postcode": "", "opening_hours": "", "phone": "", "website": "" }, "geometry": { "type": "Point", "coordinates": [ 103.6609633, 1.4821251 ] } },
{ "type": "Feature", "properties": { "osm_id": 4223066790, "name": "Foot code", "amenity": "cafe", "cuisine": "", "addr_street": "Kian Teck Avenue", "addr_housenumber": "26", "addr_postcode": "628776", "opening_hours": "", "phone": "", "website": "" }, "geometry": { "type": "Point", "coordinates": [ 103.6940775, 1.3285419 ] } },
{ "type": "Feature", "properties": { "osm_id": 4228222259, "name": "Cafeteria", "amenity": "cafe", "cuisine": "asian", "addr_street": "", "addr_housenumber": "", "addr_postcode": "", "opening_hours": "", "phone": "", "website": "" }, "geometry": { "type": "Point", "coordinates": [ 103.7435784, 1.3480225 ] } },
{ "type": "Feature", "properties": { "osm_id": 4230452489, "name": "Starbucks", "amenity": "cafe", "cuisine": "coffee_shop", "addr_street": "Lorong 6 Toa Payoh #01-14, Singapore", "addr_housenumber": "Block 490", "addr_postcode": "310490", "opening_hours": "", "phone": "", "website": "" }, "geometry": { "type": "Point", "coordinates": [ 103.8488573, 1.332626 ] } },
{ "type": "Feature", "properties": { "osm_id": 4241708033, "name": "ABC", "amenity": "cafe", "cuisine": "", "addr_street": "", "addr_housenumber": "", "addr_postcode": "", "opening_hours": "", "phone": "", "website": "" }, "geometry": { "type": "Point", "coordinates": [ 103.8384054, 1.297934 ] } },
{ "type": "Feature", "properties": { "osm_id": 4246860518, "name": "Starbucks", "amenity": "cafe", "cuisine": "coffee_shop", "addr_street": "", "addr_housenumber": "", "addr_postcode": "", "opening_hours": "", "phone": "", "website": "" }, "geometry": { "type": "Point", "coordinates": [ 103.8007354, 1.4939511 ] } },
{ "type": "Feature", "properties": { "osm_id": 4250620789, "name": "Tampines Fruit", "amenity": "cafe", "cuisine": "", "addr_street": "", "addr_housenumber": "", "addr_postcode": "", "opening_hours": "", "phone": "", "website": "" }, "geometry": { "type": "Point", "coordinates": [ 103.9338518, 1.3486741 ] } },
{ "type": "Feature", "properties": { "osm_id": 4264443068, "name": "Starbucks", "amenity": "cafe", "cuisine": "coffee_shop", "addr_street": "North Bridge Road", "addr_housenumber": "25", "addr_postcode": "", "opening_hours": "", "phone": "", "website": "" }, "geometry": { "type": "Point", "coordinates": [ 103.8497951, 1.2900978 ] } },
{ "type": "Feature", "properties": { "osm_id": 4264494891, "name": "Puteri Cafe", "amenity": "cafe", "cuisine": "", "addr_street": "", "addr_housenumber": "", "addr_postcode": "", "opening_hours": "", "phone": "", "website": "" }, "geometry": { "type": "Point", "coordinates": [ 103.660247, 1.414483 ] } },
{ "type": "Feature", "properties": { "osm_id": 4264495709, "name": "Dolche Vita", "amenity": "cafe", "cuisine": "", "addr_street": "", "addr_housenumber": "", "addr_postcode": "", "opening_hours": "", "phone": "", "website": "" }, "geometry": { "type": "Point", "coordinates": [ 103.6157172, 1.4298319 ] } },
{ "type": "Feature", "properties": { "osm_id": 4272388393, "name": "Tolido's Espresso Nook", "amenity": "cafe", "cuisine": "breakfast;coffee_shop", "addr_street": "Crawford Lane", "addr_housenumber": "462", "addr_postcode": "190462", "opening_hours": "Tu-Su 08:00-18:30; Mo off", "phone": "+65 6648 0178", "website": "" }, "geometry": { "type": "Point", "coordinates": [ 103.8608683, 1.3045344 ] } },
{ "type": "Feature", "properties": { "osm_id": 4274976773, "name": "The Coffee Bean & Tea Leaf", "amenity": "cafe", "cuisine": "coffee_shop", "addr_street": "East Coast Parkway", "addr_housenumber": "1000", "addr_postcode": "449876", "opening_hours": "Su-Th 07:30-23:30;Fr,Sa 07:30-25:00", "phone": "+65 6444 4325", "website": "https://www.coffeebean.com.sg/" }, "geometry": { "type": "Point", "coordinates": [ 103.9129616, 1.3011048 ] } },
{ "type": "Feature", "properties": { "osm_id": 4297822594, "name": "太平洋咖啡", "amenity": "cafe", "cuisine": "coffee_shop", "addr_street": "", "addr_housenumber": "", "addr_postcode": "", "opening_hours": "", "phone": "", "website": "" }, "geometry": { "type": "Point", "coordinates": [ 103.8458152, 1.2780525 ] } },
{ "type": "Feature", "properties": { "osm_id": 4299433492, "name": "crossroads cafe", "amenity": "cafe", "cuisine": "", "addr_street": "", "addr_housenumber": "", "addr_postcode": "", "opening_hours": "", "phone": "", "website": "" }, "geometry": { "type": "Point", "coordinates": [ 103.8325055, 1.3053756 ] } },
{ "type": "Feature", "properties": { "osm_id": 4336499189, "name": "J town cafe", "amenity": "cafe", "cuisine": "", "addr_street": "", "addr_housenumber": "", "addr_postcode": "", "opening_hours": "", "phone": "", "website": "" }, "geometry": { "type": "Point", "coordinates": [ 103.8385006, 1.3018514 ] } },
{ "type": "Feature", "properties": { "osm_id": 4353385858, "name": "Simply Bread", "amenity": "cafe", "cuisine": "coffee_shop;bread;bakery", "addr_street": "Fifth Avenue", "addr_housenumber": "1", "addr_postcode": "268802", "opening_hours": "Mo-Su 08:00-19:00", "phone": "", "website": "https://simplybread.oddle.me/en_SG" }, "geometry": { "type": "Point", "coordinates": [ 103.7957476, 1.3306316 ] } },
{ "type": "Feature", "properties": { "osm_id": 4357555089, "name": "u desserts", "amenity": "cafe", "cuisine": "", "addr_street": "", "addr_housenumber": "", "addr_postcode": "", "opening_hours": "", "phone": "", "website": "" }, "geometry": { "type": "Point", "coordinates": [ 103.657741, 1.4809634 ] } },
{ "type": "Feature", "properties": { "osm_id": 4368132685, "name": "Hoshino Coffee", "amenity": "cafe", "cuisine": "", "addr_street": "", "addr_housenumber": "", "addr_postcode": "", "opening_hours": "", "phone": "", "website": "https://www.hoshinocoffee.com.sg/" }, "geometry": { "type": "Point", "coordinates": [ 103.796078, 1.3107294 ] } },
{ "type": "Feature", "properties": { "osm_id": 4368132686, "name": "Provence", "amenity": "cafe", "cuisine": "", "addr_street": "", "addr_housenumber": "", "addr_postcode": "", "opening_hours": "", "phone": "", "website": "http://www.provence.com.sg" }, "geometry": { "type": "Point", "coordinates": [ 103.7960538, 1.3105772 ] } },
{ "type": "Feature", "properties": { "osm_id": 4368132687, "name": "", "amenity": "cafe", "cuisine": "milkshake", "addr_street": "", "addr_housenumber": "", "addr_postcode": "", "opening_hours": "", "phone": "", "website": "" }, "geometry": { "type": "Point", "coordinates": [ 103.7960435, 1.3104358 ] } },
{ "type": "Feature", "properties": { "osm_id": 4368147003, "name": "Awfully Chocolate", "amenity": "cafe", "cuisine": "", "addr_street": "", "addr_housenumber": "", "addr_postcode": "", "opening_hours": "", "phone": "", "website": "" }, "geometry": { "type": "Point", "coordinates": [ 103.794393, 1.3118768 ] } },
{ "type": "Feature", "properties": { "osm_id": 4368147013, "name": "Crystal Jade Kitchen", "amenity": "cafe", "cuisine": "", "addr_street": "", "addr_housenumber": "", "addr_postcode": "", "opening_hours": "", "phone": "", "website": "" }, "geometry": { "type": "Point", "coordinates": [ 103.7952993, 1.3109786 ] } },
{ "type": "Feature", "properties": { "osm_id": 4368147017, "name": "Kyushu Pancake 九州パンケーキ", "amenity": "cafe", "cuisine": "", "addr_street": "Lorong Liput", "addr_housenumber": "25", "addr_postcode": "", "opening_hours": "", "phone": "", "website": "" }, "geometry": { "type": "Point", "coordinates": [ 103.7947402, 1.3102849 ] } },
{ "type": "Feature", "properties": { "osm_id": 4368147039, "name": "Project Acai", "amenity": "cafe", "cuisine": "açaí", "addr_street": "", "addr_housenumber": "", "addr_postcode": "", "opening_hours": "", "phone": "", "website": "https://www.project-acai.com/" }, "geometry": { "type": "Point", "coordinates": [ 103.7948246, 1.3103929 ] } },
{ "type": "Feature", "properties": { "osm_id": 4368147057, "name": "British Indian Curry Hut", "amenity": "cafe", "cuisine": "", "addr_street": "Lorong Mambong", "addr_housenumber": "26A", "addr_postcode": "", "opening_hours": "", "phone": "", "website": "" }, "geometry": { "type": "Point", "coordinates": [ 103.7947452, 1.3116797 ] } },
{ "type": "Feature", "properties": { "osm_id": 4368147064, "name": "Tai Cheong Bakery", "amenity": "cafe", "cuisine": "hongkong", "addr_street": "Lorong Liput", "addr_housenumber": "31", "addr_postcode": "277742", "opening_hours": "", "phone": "+65 9828 1954", "website": "https://www.taicheong.com.sg/" }, "geometry": { "type": "Point", "coordinates": [ 103.7950082, 1.3106391 ] } },
{ "type": "Feature", "properties": { "osm_id": 4369793855, "name": "Mr. Bean", "amenity": "cafe", "cuisine": "", "addr_street": "", "addr_housenumber": "", "addr_postcode": "", "opening_hours": "", "phone": "", "website": "" }, "geometry": { "type": "Point", "coordinates": [ 103.7782739, 1.3115705 ] } },
{ "type": "Feature", "properties": { "osm_id": 4374215372, "name": "Cafe Agora", "amenity": "cafe", "cuisine": "", "addr_street": "", "addr_housenumber": "", "addr_postcode": "", "opening_hours": "", "phone": "", "website": "" }, "geometry": { "type": "Point", "coordinates": [ 103.7726323, 1.3074598 ] } },
{ "type": "Feature", "properties": { "osm_id": 4374327295, "name": "", "amenity": "cafe", "cuisine": "", "addr_street": "", "addr_housenumber": "", "addr_postcode": "", "opening_hours": "", "phone": "", "website": "" }, "geometry": { "type": "Point", "coordinates": [ 103.652156, 1.3294941 ] } },
{ "type": "Feature", "properties": { "osm_id": 4375697815, "name": "Monsta Cafe", "amenity": "cafe", "cuisine": "", "addr_street": "", "addr_housenumber": "", "addr_postcode": "", "opening_hours": "", "phone": "", "website": "" }, "geometry": { "type": "Point", "coordinates": [ 103.6589835, 1.4926844 ] } },
{ "type": "Feature", "properties": { "osm_id": 4376753891, "name": "Starbucks", "amenity": "cafe", "cuisine": "coffee_shop", "addr_street": "", "addr_housenumber": "", "addr_postcode": "", "opening_hours": "", "phone": "", "website": "" }, "geometry": { "type": "Point", "coordinates": [ 103.7832801, 1.4710071 ] } },
{ "type": "Feature", "properties": { "osm_id": 4376769993, "name": "internet cafe OCEAN NET KAFE", "amenity": "cafe", "cuisine": "", "addr_street": "", "addr_housenumber": "", "addr_postcode": "", "opening_hours": "24/7", "phone": "", "website": "" }, "geometry": { "type": "Point", "coordinates": [ 103.7643359, 1.4813982 ] } },
{ "type": "Feature", "properties": { "osm_id": 4377534207, "name": "Cafe", "amenity": "cafe", "cuisine": "", "addr_street": "", "addr_housenumber": "", "addr_postcode": "", "opening_hours": "", "phone": "", "website": "" }, "geometry": { "type": "Point", "coordinates": [ 103.8654073, 1.2842533 ] } },
{ "type": "Feature", "properties": { "osm_id": 4377534208, "name": "Children's Garden Cafe", "amenity": "cafe", "cuisine": "", "addr_street": "", "addr_housenumber": "", "addr_postcode": "", "opening_hours": "Th-Su 09:00-19:00", "phone": "", "website": "http://m.gardensbythebay.com.sg/en.html" }, "geometry": { "type": "Point", "coordinates": [ 103.8673172, 1.2835683 ] } },
{ "type": "Feature", "properties": { "osm_id": 4382775589, "name": "Restoran Hua Mui 華美茶餐室", "amenity": "cafe", "cuisine": "", "addr_street": "Jalan Trus", "addr_housenumber": "131", "addr_postcode": "80000", "opening_hours": "Mo-Su 08:00-18:00", "phone": "", "website": "" }, "geometry": { "type": "Point", "coordinates": [ 103.7642817, 1.457367 ] } },
{ "type": "Feature", "properties": { "osm_id": 4382775590, "name": "Restoran Kin Hua", "amenity": "cafe", "cuisine": "kaya_toast", "addr_street": "Jalan Tan Hiok Nee", "addr_housenumber": "8", "addr_postcode": "80000", "opening_hours": "Mo-Su 07:00-18:00", "phone": "", "website": "" }, "geometry": { "type": "Point", "coordinates": [ 103.7643653, 1.4568207 ] } },
{ "type": "Feature", "properties": { "osm_id": 4395860191, "name": "OldTown White Coffee", "amenity": "cafe", "cuisine": "coffee_shop;malaysian", "addr_street": "", "addr_housenumber": "", "addr_postcode": "", "opening_hours": "", "phone": "", "website": "" }, "geometry": { "type": "Point", "coordinates": [ 103.6337992, 1.4282678 ] } },
{ "type": "Feature", "properties": { "osm_id": 4396025692, "name": "espresso garage", "amenity": "cafe", "cuisine": "", "addr_street": "", "addr_housenumber": "", "addr_postcode": "", "opening_hours": "", "phone": "", "website": "" }, "geometry": { "type": "Point", "coordinates": [ 103.6570365, 1.4175446 ] } },
{ "type": "Feature", "properties": { "osm_id": 4398307389, "name": "Nylon Coffee Roasters", "amenity": "cafe", "cuisine": "", "addr_street": "", "addr_housenumber": "", "addr_postcode": "", "opening_hours": "", "phone": "", "website": "" }, "geometry": { "type": "Point", "coordinates": [ 103.839832, 1.276814 ] } },
{ "type": "Feature", "properties": { "osm_id": 4400885283, "name": "Starbucks", "amenity": "cafe", "cuisine": "coffee_shop", "addr_street": "", "addr_housenumber": "", "addr_postcode": "", "opening_hours": "", "phone": "", "website": "" }, "geometry": { "type": "Point", "coordinates": [ 103.7900452, 1.2895616 ] } },
{ "type": "Feature", "properties": { "osm_id": 4400909650, "name": "Inuka Cafe", "amenity": "cafe", "cuisine": "local", "addr_street": "Mandai Lake Road", "addr_housenumber": "80", "addr_postcode": "", "opening_hours": "", "phone": "", "website": "" }, "geometry": { "type": "Point", "coordinates": [ 103.7906672, 1.4045831 ] } },
{ "type": "Feature", "properties": { "osm_id": 4405544703, "name": "George and Dragon Cafe", "amenity": "cafe", "cuisine": "", "addr_street": "", "addr_housenumber": "", "addr_postcode": "", "opening_hours": "", "phone": "", "website": "" }, "geometry": { "type": "Point", "coordinates": [ 103.7259772, 1.4875951 ] } },
{ "type": "Feature", "properties": { "osm_id": 4415978139, "name": "The Bakery Chef", "amenity": "cafe", "cuisine": "", "addr_street": "Jalan Bukit Merah Central", "addr_housenumber": "Blk 161", "addr_postcode": "150161", "opening_hours": "Mo-Th 10:00-19:00; Fr-Su 10:00-21:00", "phone": "", "website": "" }, "geometry": { "type": "Point", "coordinates": [ 103.816035, 1.2841293 ] } },
{ "type": "Feature", "properties": { "osm_id": 4416427402, "name": "Hill Street Coffee Shop", "amenity": "cafe", "cuisine": "", "addr_street": "", "addr_housenumber": "", "addr_postcode": "", "opening_hours": "", "phone": "", "website": "" }, "geometry": { "type": "Point", "coordinates": [ 103.8643324, 1.2813406 ] } },
{ "type": "Feature", "properties": { "osm_id": 4418672412, "name": "The Coffee Bean & Tea Leaf", "amenity": "cafe", "cuisine": "coffee_shop", "addr_street": "80 Airport Boulevard, Singapore Changi Airport Terminal 1,  Departure/Transit Lounge West", "addr_housenumber": "#02-44", "addr_postcode": "819642", "opening_hours": "", "phone": "", "website": "" }, "geometry": { "type": "Point", "coordinates": [ 103.9893432, 1.3618865 ] } },
{ "type": "Feature", "properties": { "osm_id": 4421742589, "name": "chao fu", "amenity": "cafe", "cuisine": "", "addr_street": "", "addr_housenumber": "", "addr_postcode": "", "opening_hours": "", "phone": "", "website": "" }, "geometry": { "type": "Point", "coordinates": [ 103.6666616, 1.4814491 ] } },
{ "type": "Feature", "properties": { "osm_id": 4425687890, "name": "618 Sim Carrot Cake", "amenity": "cafe", "cuisine": "", "addr_street": "Yishun Ring Road", "addr_housenumber": "618", "addr_postcode": "760618", "opening_hours": "", "phone": "", "website": "" }, "geometry": { "type": "Point", "coordinates": [ 103.835592, 1.4187636 ] } },
{ "type": "Feature", "properties": { "osm_id": 4450165121, "name": "OldTown White Coffee", "amenity": "cafe", "cuisine": "coffee_shop;malaysian", "addr_street": "", "addr_housenumber": "", "addr_postcode": "", "opening_hours": "", "phone": "", "website": "" }, "geometry": { "type": "Point", "coordinates": [ 103.7637852, 1.4626052 ] } },
{ "type": "Feature", "properties": { "osm_id": 4455753696, "name": "Bricco Cafe", "amenity": "cafe", "cuisine": "", "addr_street": "", "addr_housenumber": "", "addr_postcode": "", "opening_hours": "", "phone": "", "website": "" }, "geometry": { "type": "Point", "coordinates": [ 103.989182, 1.362967 ] } },
{ "type": "Feature", "properties": { "osm_id": 4459975889, "name": "Ema's Kitchen", "amenity": "cafe", "cuisine": "", "addr_street": "", "addr_housenumber": "", "addr_postcode": "", "opening_hours": "", "phone": "", "website": "" }, "geometry": { "type": "Point", "coordinates": [ 103.7188239, 1.4837593 ] } },
{ "type": "Feature", "properties": { "osm_id": 4474674298, "name": "Starbucks", "amenity": "cafe", "cuisine": "coffee_shop", "addr_street": "", "addr_housenumber": "", "addr_postcode": "", "opening_hours": "", "phone": "", "website": "" }, "geometry": { "type": "Point", "coordinates": [ 103.7266087, 1.4647725 ] } },
{ "type": "Feature", "properties": { "osm_id": 4486219777, "name": "The Coffee Bean & Tea Leaf", "amenity": "cafe", "cuisine": "coffee_shop", "addr_street": "Victoria Street", "addr_housenumber": "200", "addr_postcode": "188021", "opening_hours": "24/7", "phone": "+65 6253 0653", "website": "" }, "geometry": { "type": "Point", "coordinates": [ 103.8540795, 1.2995881 ] } },
{ "type": "Feature", "properties": { "osm_id": 4488614489, "name": "Kedai Kek Moonlight", "amenity": "cafe", "cuisine": "bakery;breakfast", "addr_street": "", "addr_housenumber": "", "addr_postcode": "", "opening_hours": "", "phone": "", "website": "" }, "geometry": { "type": "Point", "coordinates": [ 103.7746292, 1.4793224 ] } },
{ "type": "Feature", "properties": { "osm_id": 4493697189, "name": "Tuas South Canteen", "amenity": "cafe", "cuisine": "", "addr_street": "", "addr_housenumber": "", "addr_postcode": "", "opening_hours": "", "phone": "", "website": "" }, "geometry": { "type": "Point", "coordinates": [ 103.6267659, 1.2951382 ] } },
{ "type": "Feature", "properties": { "osm_id": 4496275690, "name": "Han's Cafe & Cake House", "amenity": "cafe", "cuisine": "international", "addr_street": "", "addr_housenumber": "1, #02-26/27/28", "addr_postcode": "629117", "opening_hours": "Mo-Su 08:00-21:00", "phone": "", "website": "" }, "geometry": { "type": "Point", "coordinates": [ 103.6780283, 1.3273019 ] } },
{ "type": "Feature", "properties": { "osm_id": 4501757189, "name": "Hong Yun Eating House", "amenity": "cafe", "cuisine": "", "addr_street": "", "addr_housenumber": "", "addr_postcode": "", "opening_hours": "", "phone": "", "website": "" }, "geometry": { "type": "Point", "coordinates": [ 103.6315071, 1.3079964 ] } },
{ "type": "Feature", "properties": { "osm_id": 4502348703, "name": "", "amenity": "cafe", "cuisine": "", "addr_street": "", "addr_housenumber": "", "addr_postcode": "", "opening_hours": "", "phone": "", "website": "" }, "geometry": { "type": "Point", "coordinates": [ 103.8146081, 1.2978701 ] } },
{ "type": "Feature", "properties": { "osm_id": 4509930591, "name": "D'life - Vegetarian", "amenity": "cafe", "cuisine": "", "addr_street": "", "addr_housenumber": "", "addr_postcode": "640428", "opening_hours": "Mo-Su 10:00-22:00", "phone": "+65 64250128", "website": "" }, "geometry": { "type": "Point", "coordinates": [ 103.7256019, 1.3516267 ] } },
{ "type": "Feature", "properties": { "osm_id": 4515446924, "name": "Starbucks", "amenity": "cafe", "cuisine": "coffee_shop", "addr_street": "Grange Road, #01-K1 Cathay Cineleisure Orchard", "addr_housenumber": "8", "addr_postcode": "239695", "opening_hours": "Su-Th,PH 08:00-22:00; Fr,Sa 08:00-23:00", "phone": "", "website": "" }, "geometry": { "type": "Point", "coordinates": [ 103.8367385, 1.3011829 ] } },
{ "type": "Feature", "properties": { "osm_id": 4515457234, "name": "Common Man Roasters", "amenity": "cafe", "cuisine": "coffee_shop", "addr_street": "", "addr_housenumber": "", "addr_postcode": "", "opening_hours": "", "phone": "", "website": "" }, "geometry": { "type": "Point", "coordinates": [ 103.8384068, 1.2918513 ] } },
{ "type": "Feature", "properties": { "osm_id": 4524477741, "name": "The Coffee Academics", "amenity": "cafe", "cuisine": "", "addr_street": "", "addr_housenumber": "", "addr_postcode": "", "opening_hours": "", "phone": "", "website": "" }, "geometry": { "type": "Point", "coordinates": [ 103.8328705, 1.3059 ] } },
{ "type": "Feature", "properties": { "osm_id": 4535010491, "name": "The Replacement", "amenity": "cafe", "cuisine": "", "addr_street": "", "addr_housenumber": "", "addr_postcode": "", "opening_hours": "Mo-Su 09:00-20:00", "phone": "", "website": "" }, "geometry": { "type": "Point", "coordinates": [ 103.7637886, 1.4571091 ] } },
{ "type": "Feature", "properties": { "osm_id": 4537608982, "name": "Stokedi", "amenity": "cafe", "cuisine": "", "addr_street": "Science Park Drive", "addr_housenumber": "87", "addr_postcode": "118260", "opening_hours": "", "phone": "", "website": "" }, "geometry": { "type": "Point", "coordinates": [ 103.7904988, 1.2877723 ] } },
{ "type": "Feature", "properties": { "osm_id": 4538844762, "name": "Baker & Cook", "amenity": "cafe", "cuisine": "", "addr_street": "Namly Place", "addr_housenumber": "64", "addr_postcode": "267208", "opening_hours": "07:30-22:00", "phone": "+65 6466 2208", "website": "https://www.bakerandcook.biz/" }, "geometry": { "type": "Point", "coordinates": [ 103.7967709, 1.3238966 ] } },
{ "type": "Feature", "properties": { "osm_id": 4539201552, "name": "Tealive", "amenity": "cafe", "cuisine": "", "addr_street": "", "addr_housenumber": "", "addr_postcode": "", "opening_hours": "", "phone": "", "website": "" }, "geometry": { "type": "Point", "coordinates": [ 103.8183122, 1.4955448 ] } },
{ "type": "Feature", "properties": { "osm_id": 4539728274, "name": "Kopifellas", "amenity": "cafe", "cuisine": "", "addr_street": "Science Park Drive", "addr_housenumber": "87", "addr_postcode": "118260", "opening_hours": "", "phone": "", "website": "" }, "geometry": { "type": "Point", "coordinates": [ 103.7904984, 1.2878384 ] } },
{ "type": "Feature", "properties": { "osm_id": 4545856990, "name": "LIN LIN VEGETARIAN DELIGHT", "amenity": "cafe", "cuisine": "", "addr_street": "", "addr_housenumber": "", "addr_postcode": "", "opening_hours": "", "phone": "", "website": "" }, "geometry": { "type": "Point", "coordinates": [ 103.9311895, 1.328853 ] } },
{ "type": "Feature", "properties": { "osm_id": 4546730141, "name": "Maison Kayser Raffles Place", "amenity": "cafe", "cuisine": "", "addr_street": "Chulia Street", "addr_housenumber": "63", "addr_postcode": "049514", "opening_hours": "", "phone": "+65 6636 3672", "website": "http://maison-kayser.com.sg/" }, "geometry": { "type": "Point", "coordinates": [ 103.849759, 1.2849337 ] } },
{ "type": "Feature", "properties": { "osm_id": 4549166890, "name": "Hong Kee Roasted Chicken/Duck Rice", "amenity": "cafe", "cuisine": "", "addr_street": "Sims Drive", "addr_housenumber": "", "addr_postcode": "380045", "opening_hours": "", "phone": "", "website": "" }, "geometry": { "type": "Point", "coordinates": [ 103.8785396, 1.317169 ] } },
{ "type": "Feature", "properties": { "osm_id": 4554443833, "name": "Boost", "amenity": "cafe", "cuisine": "juice", "addr_street": "", "addr_housenumber": "", "addr_postcode": "", "opening_hours": "", "phone": "", "website": "" }, "geometry": { "type": "Point", "coordinates": [ 103.7644037, 1.3798455 ] } },
{ "type": "Feature", "properties": { "osm_id": 4560997420, "name": "Hoshino Coffee", "amenity": "cafe", "cuisine": "", "addr_street": "", "addr_housenumber": "", "addr_postcode": "", "opening_hours": "", "phone": "", "website": "" }, "geometry": { "type": "Point", "coordinates": [ 103.8600591, 1.2947768 ] } },
{ "type": "Feature", "properties": { "osm_id": 4560997454, "name": "St. Marc Cafe", "amenity": "cafe", "cuisine": "", "addr_street": "Raffles Boulevard", "addr_housenumber": "6", "addr_postcode": "039594", "opening_hours": "", "phone": "", "website": "" }, "geometry": { "type": "Point", "coordinates": [ 103.8566343, 1.2918626 ] } },
{ "type": "Feature", "properties": { "osm_id": 4560997455, "name": "The Coffee Bean & Tea Leaf", "amenity": "cafe", "cuisine": "coffee_shop", "addr_street": "Raffles Boulevard", "addr_housenumber": "6", "addr_postcode": "039594", "opening_hours": "", "phone": "", "website": "" }, "geometry": { "type": "Point", "coordinates": [ 103.8564828, 1.2919551 ] } },
{ "type": "Feature", "properties": { "osm_id": 4560997471, "name": "Toast Box", "amenity": "cafe", "cuisine": "coffee_shop", "addr_street": "13 Stamford Road, Capitol Tower", "addr_housenumber": "#01-21", "addr_postcode": "178905", "opening_hours": "", "phone": "", "website": "" }, "geometry": { "type": "Point", "coordinates": [ 103.8534123, 1.2928749 ] } },
{ "type": "Feature", "properties": { "osm_id": 4560997474, "name": "The Coffee Bean & Tea Leaf", "amenity": "cafe", "cuisine": "coffee_shop", "addr_street": "Raffles Boulevard, #01-106 Millenia Walk", "addr_housenumber": "9", "addr_postcode": "039596", "opening_hours": "", "phone": "", "website": "" }, "geometry": { "type": "Point", "coordinates": [ 103.8595234, 1.2933446 ] } },
{ "type": "Feature", "properties": { "osm_id": 4560997481, "name": "KOI Cafe", "amenity": "cafe", "cuisine": "", "addr_street": "", "addr_housenumber": "", "addr_postcode": "", "opening_hours": "", "phone": "", "website": "" }, "geometry": { "type": "Point", "coordinates": [ 103.8596863, 1.2932793 ] } },
{ "type": "Feature", "properties": { "osm_id": 4560997493, "name": "Paris Baguette", "amenity": "cafe", "cuisine": "", "addr_street": "North Bridge Road Raffles City", "addr_housenumber": "252 #01-46/47/48", "addr_postcode": "179103", "opening_hours": "", "phone": "", "website": "" }, "geometry": { "type": "Point", "coordinates": [ 103.8532182, 1.2933107 ] } },
{ "type": "Feature", "properties": { "osm_id": 4560997495, "name": "Starbucks", "amenity": "cafe", "cuisine": "coffee_shop", "addr_street": "One Raffles Link", "addr_housenumber": "", "addr_postcode": "039393", "opening_hours": "Mo-Fr 09:30-18:00; Sa 10:30-20:00; Su,PH 10:30-18:00", "phone": "+65 6910 1299", "website": "https://www.starbucks.com.sg/" }, "geometry": { "type": "Point", "coordinates": [ 103.8556952, 1.2921569 ] } },
{ "type": "Feature", "properties": { "osm_id": 4560997498, "name": "KOI Express", "amenity": "cafe", "cuisine": "", "addr_street": "Raffles City", "addr_housenumber": "B1F", "addr_postcode": "", "opening_hours": "", "phone": "", "website": "" }, "geometry": { "type": "Point", "coordinates": [ 103.853047, 1.2935738 ] } },
{ "type": "Feature", "properties": { "osm_id": 4576926692, "name": "The Coffee Bean & Tea Leaf", "amenity": "cafe", "cuisine": "coffee_shop", "addr_street": "", "addr_housenumber": "", "addr_postcode": "", "opening_hours": "", "phone": "", "website": "" }, "geometry": { "type": "Point", "coordinates": [ 103.8358767, 1.3033634 ] } },
{ "type": "Feature", "properties": { "osm_id": 4577003790, "name": "Starbucks", "amenity": "cafe", "cuisine": "coffee_shop", "addr_street": "Tanglin Road", "addr_housenumber": "163", "addr_postcode": "247933", "opening_hours": "Mo-Su 07:00-22:00", "phone": "", "website": "https://www.starbucks.com.sg/" }, "geometry": { "type": "Point", "coordinates": [ 103.8233479, 1.3049283 ] } },
{ "type": "Feature", "properties": { "osm_id": 4582447340, "name": "Starbucks", "amenity": "cafe", "cuisine": "coffee_shop", "addr_street": "Marina Boulevard #B2-38-36", "addr_housenumber": "8A", "addr_postcode": "018984", "opening_hours": "", "phone": "", "website": "" }, "geometry": { "type": "Point", "coordinates": [ 103.8539014, 1.2807203 ] } },
{ "type": "Feature", "properties": { "osm_id": 4582447341, "name": "The Coffee Bean & Tea Leaf", "amenity": "cafe", "cuisine": "coffee_shop", "addr_street": "Marina Blvd, #B2-10 Marina Bay Link Mall", "addr_housenumber": "8A", "addr_postcode": "018984", "opening_hours": "", "phone": "", "website": "" }, "geometry": { "type": "Point", "coordinates": [ 103.8533696, 1.2805661 ] } },
{ "type": "Feature", "properties": { "osm_id": 4583483586, "name": "Dimbulah", "amenity": "cafe", "cuisine": "", "addr_street": "", "addr_housenumber": "", "addr_postcode": "", "opening_hours": "", "phone": "", "website": "" }, "geometry": { "type": "Point", "coordinates": [ 103.8543674, 1.2803268 ] } },
{ "type": "Feature", "properties": { "osm_id": 4583503315, "name": "BreadTalk", "amenity": "cafe", "cuisine": "", "addr_street": "", "addr_housenumber": "", "addr_postcode": "", "opening_hours": "", "phone": "", "website": "" }, "geometry": { "type": "Point", "coordinates": [ 103.8529634, 1.2798102 ] } },
{ "type": "Feature", "properties": { "osm_id": 4593886689, "name": "The Mad Men Attic Bar", "amenity": "cafe", "cuisine": "", "addr_street": "", "addr_housenumber": "", "addr_postcode": "", "opening_hours": "", "phone": "", "website": "" }, "geometry": { "type": "Point", "coordinates": [ 103.8488398, 1.2862122 ] } },
{ "type": "Feature", "properties": { "osm_id": 4599214162, "name": "", "amenity": "cafe", "cuisine": "", "addr_street": "", "addr_housenumber": "", "addr_postcode": "", "opening_hours": "", "phone": "", "website": "" }, "geometry": { "type": "Point", "coordinates": [ 103.794937, 1.2925631 ] } },
{ "type": "Feature", "properties": { "osm_id": 4605978589, "name": "Toast Box", "amenity": "cafe", "cuisine": "coffee_shop", "addr_street": "", "addr_housenumber": "", "addr_postcode": "", "opening_hours": "", "phone": "", "website": "" }, "geometry": { "type": "Point", "coordinates": [ 103.8434069, 1.3202983 ] } },
{ "type": "Feature", "properties": { "osm_id": 4613238713, "name": "Starbucks", "amenity": "cafe", "cuisine": "coffee_shop", "addr_street": "", "addr_housenumber": "", "addr_postcode": "", "opening_hours": "", "phone": "", "website": "" }, "geometry": { "type": "Point", "coordinates": [ 103.8177459, 1.2551352 ] } },
{ "type": "Feature", "properties": { "osm_id": 4613655889, "name": "My Awesome Cafe", "amenity": "cafe", "cuisine": "french", "addr_street": "", "addr_housenumber": "", "addr_postcode": "068639", "opening_hours": "Mo-Fr 09:00-00:00; Sa-Su 08:45-00:00", "phone": "+65 6222 2007", "website": "http://myawesomecafe.com" }, "geometry": { "type": "Point", "coordinates": [ 103.847118, 1.2801306 ] } },
{ "type": "Feature", "properties": { "osm_id": 4613657797, "name": "The Populus Coffee and Food Co", "amenity": "cafe", "cuisine": "", "addr_street": "", "addr_housenumber": "", "addr_postcode": "088875", "opening_hours": "Mo, We 09:00-19:00; Tu 09:00-16:00; Th-Fr 09:00-22:30; Sa 09:30-19:00; Su 09:30-19:30", "phone": "+6566358420", "website": "http://thepopuluscafe.com" }, "geometry": { "type": "Point", "coordinates": [ 103.8406988, 1.278196 ] } },
{ "type": "Feature", "properties": { "osm_id": 4613669891, "name": "Ya Kun Kaya Toast", "amenity": "cafe", "cuisine": "coffee_shop", "addr_street": "T3 Basement Drive", "addr_housenumber": "", "addr_postcode": "819663", "opening_hours": "24/7", "phone": "+65 6241 4341", "website": "https://www.changiairport.com/en/shop-and-dine/dining/ya-kun-kaya-toast-family-cafe.html" }, "geometry": { "type": "Point", "coordinates": [ 103.9865056, 1.3564289 ] } },
{ "type": "Feature", "properties": { "osm_id": 4620337789, "name": "Bingki Korean bingsu dessert", "amenity": "cafe", "cuisine": "", "addr_street": "", "addr_housenumber": "", "addr_postcode": "", "opening_hours": "", "phone": "", "website": "" }, "geometry": { "type": "Point", "coordinates": [ 103.8428716, 1.2772559 ] } },
{ "type": "Feature", "properties": { "osm_id": 4620659251, "name": "Fuel Plus", "amenity": "cafe", "cuisine": "", "addr_street": "", "addr_housenumber": "", "addr_postcode": "", "opening_hours": "", "phone": "", "website": "" }, "geometry": { "type": "Point", "coordinates": [ 103.8147922, 1.2698155 ] } },
{ "type": "Feature", "properties": { "osm_id": 4620794193, "name": "Ah Chew Desserts", "amenity": "cafe", "cuisine": "dessert", "addr_street": "Seah Street", "addr_housenumber": "17", "addr_postcode": "", "opening_hours": "", "phone": "", "website": "" }, "geometry": { "type": "Point", "coordinates": [ 103.8563582, 1.2979987 ] } },
{ "type": "Feature", "properties": { "osm_id": 4620794194, "name": "Ah May Cafe", "amenity": "cafe", "cuisine": "", "addr_street": "", "addr_housenumber": "", "addr_postcode": "", "opening_hours": "", "phone": "", "website": "" }, "geometry": { "type": "Point", "coordinates": [ 103.856838, 1.2982678 ] } },
{ "type": "Feature", "properties": { "osm_id": 4620794199, "name": "Burp", "amenity": "cafe", "cuisine": "", "addr_street": "Tanjong Katong Road", "addr_housenumber": "", "addr_postcode": "", "opening_hours": "", "phone": "", "website": "" }, "geometry": { "type": "Point", "coordinates": [ 103.8953721, 1.3079528 ] } },
{ "type": "Feature", "properties": { "osm_id": 4620794209, "name": "NunSongYee Korean Dessert Cafe", "amenity": "cafe", "cuisine": "", "addr_street": "Tanjong Katong Road", "addr_housenumber": "232", "addr_postcode": "437020", "opening_hours": "", "phone": "", "website": "http://www.nunsongyee.sg/" }, "geometry": { "type": "Point", "coordinates": [ 103.8954533, 1.3069127 ] } },
{ "type": "Feature", "properties": { "osm_id": 4620794220, "name": "with a pinch of salt", "amenity": "cafe", "cuisine": "", "addr_street": "Tanjong Katong Road", "addr_housenumber": "297", "addr_postcode": "", "opening_hours": "", "phone": "", "website": "http://www.withapinchofsalt.com.sg/" }, "geometry": { "type": "Point", "coordinates": [ 103.8959055, 1.3064814 ] } },
{ "type": "Feature", "properties": { "osm_id": 4620811697, "name": "YY Kafei Dian", "amenity": "cafe", "cuisine": "coffee_shop;chinese", "addr_street": "Beach Road", "addr_housenumber": "37", "addr_postcode": "", "opening_hours": "", "phone": "", "website": "" }, "geometry": { "type": "Point", "coordinates": [ 103.8558237, 1.2961147 ] } },
{ "type": "Feature", "properties": { "osm_id": 4620811711, "name": "O’Coffee Club", "amenity": "cafe", "cuisine": "asian;fusion", "addr_street": "", "addr_housenumber": "", "addr_postcode": "", "opening_hours": "08:00-22:00", "phone": "", "website": "https://www.ocoffeeclub.com" }, "geometry": { "type": "Point", "coordinates": [ 103.8543364, 1.2964888 ] } },
{ "type": "Feature", "properties": { "osm_id": 4631028690, "name": "Starbucks", "amenity": "cafe", "cuisine": "coffee_shop", "addr_street": "Pasir Panjang Road Mapletree Business City #02-11", "addr_housenumber": "20", "addr_postcode": "117439", "opening_hours": "", "phone": "", "website": "" }, "geometry": { "type": "Point", "coordinates": [ 103.8002586, 1.2745103 ] } },
{ "type": "Feature", "properties": { "osm_id": 4631657929, "name": "Rocky Masters", "amenity": "cafe", "cuisine": "coffee_shop;regional", "addr_street": "Biomedical Grove", "addr_housenumber": "8", "addr_postcode": "138665", "opening_hours": "", "phone": "", "website": "" }, "geometry": { "type": "Point", "coordinates": [ 103.7932515, 1.3023978 ] } },
{ "type": "Feature", "properties": { "osm_id": 4631657930, "name": "Coffee Hive", "amenity": "cafe", "cuisine": "regional", "addr_street": "Biomedical Grove", "addr_housenumber": "8A", "addr_postcode": "138648", "opening_hours": "07:00-18:00", "phone": "", "website": "" }, "geometry": { "type": "Point", "coordinates": [ 103.793566, 1.3022823 ] } },
{ "type": "Feature", "properties": { "osm_id": 4631657931, "name": "Coffee Culture", "amenity": "cafe", "cuisine": "regional", "addr_street": "Biopolis Way", "addr_housenumber": "31", "addr_postcode": "138669", "opening_hours": "", "phone": "", "website": "" }, "geometry": { "type": "Point", "coordinates": [ 103.7923946, 1.3042209 ] } },
{ "type": "Feature", "properties": { "osm_id": 4631679474, "name": "Nanyang Old Coffee", "amenity": "cafe", "cuisine": "cafe/diner", "addr_street": "Biopolis Street", "addr_housenumber": "60", "addr_postcode": "138672", "opening_hours": "", "phone": "", "website": "" }, "geometry": { "type": "Point", "coordinates": [ 103.7925841, 1.3024031 ] } },
{ "type": "Feature", "properties": { "osm_id": 4631679475, "name": "Hungrywich", "amenity": "cafe", "cuisine": "sandwich", "addr_street": "Biopolis Street", "addr_housenumber": "60", "addr_postcode": "138672", "opening_hours": "", "phone": "", "website": "" }, "geometry": { "type": "Point", "coordinates": [ 103.7925356, 1.302691 ] } },
{ "type": "Feature", "properties": { "osm_id": 4631688313, "name": "Starbucks", "amenity": "cafe", "cuisine": "coffee_shop", "addr_street": "", "addr_housenumber": "", "addr_postcode": "", "opening_hours": "", "phone": "", "website": "" }, "geometry": { "type": "Point", "coordinates": [ 103.7919503, 1.3031953 ] } },
{ "type": "Feature", "properties": { "osm_id": 4631694050, "name": "O'Briens", "amenity": "cafe", "cuisine": "sandwich", "addr_street": "", "addr_housenumber": "", "addr_postcode": "", "opening_hours": "", "phone": "", "website": "" }, "geometry": { "type": "Point", "coordinates": [ 103.7924537, 1.3036094 ] } },
{ "type": "Feature", "properties": { "osm_id": 4633815490, "name": "Meat & Greens", "amenity": "cafe", "cuisine": "salad", "addr_street": "", "addr_housenumber": "", "addr_postcode": "", "opening_hours": "", "phone": "", "website": "" }, "geometry": { "type": "Point", "coordinates": [ 103.7930452, 1.3022111 ] } },
{ "type": "Feature", "properties": { "osm_id": 4634008348, "name": "Mr Bean", "amenity": "cafe", "cuisine": "regional", "addr_street": "", "addr_housenumber": "", "addr_postcode": "", "opening_hours": "", "phone": "", "website": "" }, "geometry": { "type": "Point", "coordinates": [ 103.7911369, 1.3060918 ] } },
{ "type": "Feature", "properties": { "osm_id": 4634008350, "name": "Starbucks", "amenity": "cafe", "cuisine": "coffee_shop", "addr_street": "", "addr_housenumber": "", "addr_postcode": "", "opening_hours": "", "phone": "", "website": "" }, "geometry": { "type": "Point", "coordinates": [ 103.7911477, 1.3059696 ] } },
{ "type": "Feature", "properties": { "osm_id": 4634033882, "name": "Heong Hock Cafe", "amenity": "cafe", "cuisine": "regional", "addr_street": "", "addr_housenumber": "", "addr_postcode": "", "opening_hours": "", "phone": "", "website": "" }, "geometry": { "type": "Point", "coordinates": [ 103.8869731, 1.329031 ] } },
{ "type": "Feature", "properties": { "osm_id": 4638215531, "name": "Co-op@NTU Cafe", "amenity": "cafe", "cuisine": "", "addr_street": "", "addr_housenumber": "", "addr_postcode": "", "opening_hours": "", "phone": "", "website": "" }, "geometry": { "type": "Point", "coordinates": [ 103.6825786, 1.3432489 ] } },
{ "type": "Feature", "properties": { "osm_id": 4668473953, "name": "Starbucks", "amenity": "cafe", "cuisine": "coffee_shop", "addr_street": "", "addr_housenumber": "", "addr_postcode": "", "opening_hours": "", "phone": "", "website": "" }, "geometry": { "type": "Point", "coordinates": [ 103.7643476, 1.4638868 ] } },
{ "type": "Feature", "properties": { "osm_id": 4668473954, "name": "Starbucks", "amenity": "cafe", "cuisine": "coffee_shop", "addr_street": "", "addr_housenumber": "", "addr_postcode": "", "opening_hours": "", "phone": "", "website": "" }, "geometry": { "type": "Point", "coordinates": [ 103.7636063, 1.4629145 ] } },
{ "type": "Feature", "properties": { "osm_id": 4677339593, "name": "Syed Cafe", "amenity": "cafe", "cuisine": "", "addr_street": "Bedok Road", "addr_housenumber": "", "addr_postcode": "", "opening_hours": "", "phone": "", "website": "" }, "geometry": { "type": "Point", "coordinates": [ 103.9481504, 1.3310465 ] } },
{ "type": "Feature", "properties": { "osm_id": 4677339596, "name": "Thai Table", "amenity": "cafe", "cuisine": "", "addr_street": "Upper Changi Road", "addr_housenumber": "", "addr_postcode": "", "opening_hours": "", "phone": "", "website": "" }, "geometry": { "type": "Point", "coordinates": [ 103.9485209, 1.3336878 ] } },
{ "type": "Feature", "properties": { "osm_id": 4677339597, "name": "D'zerts Cafe", "amenity": "cafe", "cuisine": "", "addr_street": "Upper Changi Road", "addr_housenumber": "", "addr_postcode": "", "opening_hours": "", "phone": "", "website": "" }, "geometry": { "type": "Point", "coordinates": [ 103.9488388, 1.33381 ] } },
{ "type": "Feature", "properties": { "osm_id": 4678660995, "name": "Killiney Kopitiam", "amenity": "cafe", "cuisine": "", "addr_street": "Killiney Road", "addr_housenumber": "67", "addr_postcode": "", "opening_hours": "", "phone": "", "website": "" }, "geometry": { "type": "Point", "coordinates": [ 103.8394544, 1.2988102 ] } },
{ "type": "Feature", "properties": { "osm_id": 4680993193, "name": "TWG Tea", "amenity": "cafe", "cuisine": "", "addr_street": "", "addr_housenumber": "", "addr_postcode": "", "opening_hours": "", "phone": "", "website": "" }, "geometry": { "type": "Point", "coordinates": [ 103.8599481, 1.2848446 ] } },
{ "type": "Feature", "properties": { "osm_id": 4682762221, "name": "Udders & Kook", "amenity": "cafe", "cuisine": "", "addr_street": "Upper East Coast Road", "addr_housenumber": "", "addr_postcode": "", "opening_hours": "", "phone": "", "website": "" }, "geometry": { "type": "Point", "coordinates": [ 103.9276038, 1.3133636 ] } },
{ "type": "Feature", "properties": { "osm_id": 4682762223, "name": "Perle Noire", "amenity": "cafe", "cuisine": "", "addr_street": "Upper East Coast Road", "addr_housenumber": "", "addr_postcode": "", "opening_hours": "", "phone": "", "website": "" }, "geometry": { "type": "Point", "coordinates": [ 103.9277158, 1.3133841 ] } },
{ "type": "Feature", "properties": { "osm_id": 4685788474, "name": "Starbucks", "amenity": "cafe", "cuisine": "coffee_shop", "addr_street": "", "addr_housenumber": "", "addr_postcode": "", "opening_hours": "", "phone": "", "website": "" }, "geometry": { "type": "Point", "coordinates": [ 103.8534479, 1.2871106 ] } },
{ "type": "Feature", "properties": { "osm_id": 4687316800, "name": "Cedele", "amenity": "cafe", "cuisine": "", "addr_street": "Frankel Avenue", "addr_housenumber": "", "addr_postcode": "", "opening_hours": "Mo-Su,PH 08:30-07:00", "phone": "", "website": "" }, "geometry": { "type": "Point", "coordinates": [ 103.9195506, 1.3142004 ] } },
{ "type": "Feature", "properties": { "osm_id": 4687927090, "name": "Brew Maison", "amenity": "cafe", "cuisine": "", "addr_street": "", "addr_housenumber": "", "addr_postcode": "", "opening_hours": "", "phone": "", "website": "" }, "geometry": { "type": "Point", "coordinates": [ 103.8272358, 1.3195977 ] } },